,Neighbourhood,Neighbourhood Latitude,Neighbourhood Longitude,Venue,Venue Latitude,Venue Longitude,Venue Category
0,Adarsh Nagar,28.7142,77.16671,Shalimar bagh club,28.711882012456098,77.15793345551063,Indian Restaurant
1,Adarsh Nagar,28.7142,77.16671,Ever Bake,28.706418633518236,77.16260739997145,Bakery
2,Adarsh Nagar,28.7142,77.16671,Domino's Pizza,28.706,77.163,Pizza Place
3,Adarsh Nagar,28.7142,77.16671,Cafe Coffee Day,28.707933601581548,77.16147766720368,Coffee Shop
4,Adarsh Nagar,28.7142,77.16671,Adarsh Nagar Metro Station,28.716598094266047,77.17043638229369,Light Rail Station
5,Adarsh Nagar,28.7142,77.16671,McDonald's,28.71331172786057,77.15792783860965,Restaurant
6,Adarsh Nagar,28.7142,77.16671,24 SEVEN,28.71353407871715,77.15734929638812,Convenience Store
7,Adarsh Nagar,28.7142,77.16671,Shalimar Bagh Club,28.707350921747665,77.1612810813635,Hotel
8,Ashok Vihar,28.69206,77.17755,Bellagio,28.696361101018056,77.18002105017133,Asian Restaurant
9,Ashok Vihar,28.69206,77.17755,Subway,28.69632063168931,77.17998336484409,Sandwich Place
10,Ashok Vihar,28.69206,77.17755,Domino's Pizza,28.693,77.177,Pizza Place
11,Ashok Vihar,28.69206,77.17755,Sagar Ratna | सागर रतना,28.693381067058812,77.17797666086976,South Indian Restaurant
12,Ashok Vihar,28.69206,77.17755,Subway.,28.695571296469403,77.17196364683056,Sandwich Place
13,Ashok Vihar,28.69206,77.17755,Rahul Egg Corner,28.688240410906264,77.16859947234954,Snack Place
14,Ashok Vihar,28.69206,77.17755,Invitation Restaurant,28.696181557447208,77.17928699622868,Indian Restaurant
15,Ashok Vihar,28.69206,77.17755,Cafe Coffee Day,28.69610288506766,77.17994405382133,Coffee Shop
16,Ashok Vihar,28.69206,77.17755,Giani,28.69269894997536,77.17119421966083,Dessert Shop
17,Ashok Vihar,28.69206,77.17755,J Block Murga Market,28.687143857204767,77.17303504746471,Market
18,Azadpur,28.7053,77.1783,Arjun Pao Bhaji,28.708468173834454,77.18496322631836,Indian Restaurant
19,Azadpur,28.7053,77.1783,Azadpur,28.70866887677249,77.17910167163504,Bus Station
20,Azadpur,28.7053,77.1783,Rameshwar Nagar Park,28.71149154940595,77.18149402143138,Park
21,Azadpur,28.7053,77.1783,"D Park, Model Town",28.709258610495475,77.18463867902756,Park
22,Azadpur,28.7053,77.1783,Chatrasaal Stadium,28.704007740744686,77.18743085861206,Track Stadium
23,Bawana,28.80221,77.040199,Fly Ash Supplier,28.805722250578036,77.04545617103577,Business Service
24,Bawana,28.80221,77.040199,Axis Bank ATM,28.797660827637,77.045257568359,ATM
25,Begum Pur,28.536978,77.209941,T'POT,28.53743251744998,77.21041331491391,Café
26,Begum Pur,28.536978,77.209941,Nazeer,28.5366512218557,77.21182101423967,Asian Restaurant
27,Begum Pur,28.536978,77.209941,Dunkin' Donuts,28.536585845301875,77.21170457740932,Donut Shop
28,Begum Pur,28.536978,77.209941,Starbucks,28.529476603835207,77.20859633041421,Coffee Shop
29,Begum Pur,28.536978,77.209941,Panchsheel Club,28.544078734166824,77.21039060582382,Lounge
30,Begum Pur,28.536978,77.209941,The Madpackers' Hostel,28.54299673396243,77.2140335491403,Hostel
31,Begum Pur,28.536978,77.209941,Panchsheel Park,28.54269790619528,77.21282036451436,Garden
32,Begum Pur,28.536978,77.209941,Subway,28.533422642814458,77.20855341677142,Sandwich Place
33,Begum Pur,28.536978,77.209941,"Cafe Coffee Day, Malviya Nagar",28.53604304703309,77.20982228836188,Coffee Shop
34,Begum Pur,28.536978,77.209941,Golden Dragon,28.543779996930773,77.2085426923895,Chinese Restaurant
35,Begum Pur,28.536978,77.209941,Cafe coffee Day,28.53779843973299,77.21263509234821,Coffee Shop
36,Begum Pur,28.536978,77.209941,Malviya Nagar Market,28.53550891138699,77.21173679894316,Miscellaneous Shop
37,Begum Pur,28.536978,77.209941,Domino's Pizza,28.534,77.209,Pizza Place
38,Begum Pur,28.536978,77.209941,The Visaya,28.54131455246223,77.21247335388706,Hotel
39,Begum Pur,28.536978,77.209941,Saket Sports Complex,28.529507264723815,77.20856051019999,Athletics & Sports
40,Begum Pur,28.536978,77.209941,Hauz Khas | हौज खास Metro Station,28.543979049136702,77.20626267608529,Train Station
41,Begum Pur,28.536978,77.209941,Tunday Kababi,28.54054084462822,77.21270147589858,Indian Restaurant
42,Begum Pur,28.536978,77.209941,cafe coffee day,28.537923645030208,77.21940575932557,Café
43,Begum Pur,28.536978,77.209941,Cafe Rendezvous,28.5413113772963,77.21248395139374,Indian Restaurant
44,Begum Pur,28.536978,77.209941,Barista,28.53352121877712,77.20638089485482,Coffee Shop
45,Begum Pur,28.536978,77.209941,Hotel Swagath New Delhi,28.53644882820168,77.21158521125832,Hotel
46,Begum Pur,28.536978,77.209941,Cafe Coffee Day,28.540324791883734,77.21165819794564,Coffee Shop
47,Begum Pur,28.536978,77.209941,Pema's,28.534501590202943,77.20723400046695,Chinese Restaurant
48,Begum Pur,28.536978,77.209941,Barista,28.529497480224983,77.20855164375057,Coffee Shop
49,Begum Pur,28.536978,77.209941,"Sagar Ratna, Malviya Nagar",28.53709203887816,77.21765418117123,Indian Restaurant
50,Begum Pur,28.536978,77.209941,The Brown Box,28.541401139779136,77.21584082131382,Bakery
51,Begum Pur,28.536978,77.209941,The Golden Dragon,28.54383002598109,77.20863763433395,Bar
52,Begum Pur,28.536978,77.209941,Cocoberry,28.529509667330583,77.20864533791942,Dessert Shop
53,Begum Pur,28.536978,77.209941,"Om book shop, Saket",28.52948298347126,77.2085934427476,Bookstore
54,Begum Pur,28.536978,77.209941,RP's Restaurant,28.540400571989785,77.2184289208642,Indian Restaurant
55,Begum Pur,28.536978,77.209941,Noodlebox,28.53797,77.219406,Asian Restaurant
56,Begum Pur,28.536978,77.209941,Parathe Hi Parathe,28.532564904442445,77.21870962239821,Indian Restaurant
57,Dhaka,28.708698,77.205749,cafe coffee day,28.70048819308643,77.2080945968628,Coffee Shop
58,Dhaka,28.708698,77.205749,Gtb Nagar Railway Station,28.707183121238955,77.20675676115992,Train Station
59,Dhaka,28.708698,77.205749,Gelato Italiano,28.710974446585688,77.21378602080287,Ice Cream Shop
60,Dhaka,28.708698,77.205749,Batra Cinema,28.711112116736174,77.21523449045063,Indie Movie Theater
61,Dhaka,28.708698,77.205749,AIM cafe,28.7011367255292,77.20903320085691,Café
62,Dhaka,28.708698,77.205749,Korean restaurant,28.701080427580862,77.20902503434961,Korean Restaurant
63,Jahangirpuri,28.725987,77.162683,Jahangirpuri Metro Station | जहांगीरपुरी,28.726025752225787,77.16262578964233,Light Rail Station
64,Jahangirpuri,28.725987,77.162683,Bluebird Pure Private Limited,28.72523544228677,77.1623682975769,Kitchen Supply Store
65,Jahangirpuri,28.725987,77.162683,Concepts Safety Services Pvt. Ltd,28.731538938666308,77.16522216796875,IT Services
66,Jahangirpuri,28.725987,77.162683,Sargam Electronics,28.730541694402334,77.1698784828186,Electronics Store
67,Keshav Puram,28.688914,77.161652,Major Dhyan Chand Sports Complex,28.684029298330163,77.16748742045543,Athletics & Sports
68,Keshav Puram,28.688914,77.161652,Rahul Egg Corner,28.688240410906264,77.16859947234954,Snack Place
69,Keshav Puram,28.688914,77.161652,Kake Di Hatti | काके दी हट्टी,28.692933118144015,77.15277141175852,Indian Restaurant
70,Keshav Puram,28.688914,77.161652,McDonald's,28.692449639202426,77.15280511461941,Fast Food Restaurant
71,Keshav Puram,28.688914,77.161652,Major Dhyanchand Sports Complex.,28.689481966742875,77.16352775733044,Basketball Court
72,Keshav Puram,28.688914,77.161652,F - Block Market,28.689744487564482,77.16313459209786,Department Store
73,Keshav Puram,28.688914,77.161652,Haldiram,28.69293615099474,77.15287813742106,Indian Restaurant
74,Keshav Puram,28.688914,77.161652,Keshavpuram Metro Station,28.684354917616023,77.1640725698628,Train Station
75,Keshav Puram,28.688914,77.161652,Kanhaiya Nagar | कन्हैया नगर  Metro Station,28.68223129562289,77.1648027270765,Light Rail Station
76,Keshav Puram,28.688914,77.161652,D Mall,28.692602163998377,77.15274733819133,Shopping Mall
77,Keshav Puram,28.688914,77.161652,Nizam's Kathi Kabab,28.691696472513915,77.15192321995401,Asian Restaurant
78,Kingsway Camp,28.698684000000004,77.204675,Woodbox Cafe,28.69433449394833,77.20481057363072,Café
79,Kingsway Camp,28.698684000000004,77.204675,Big Yellow Door,28.693244735370346,77.20494771461874,Café
80,Kingsway Camp,28.698684000000004,77.204675,Rico's,28.694766392301215,77.20414858461864,Fast Food Restaurant
81,Kingsway Camp,28.698684000000004,77.204675,QD's New,28.695156012831536,77.20408093484266,Chinese Restaurant
82,Kingsway Camp,28.698684000000004,77.204675,Domino's Pizza,28.698,77.21,Pizza Place
83,Kingsway Camp,28.698684000000004,77.204675,cafe coffee day,28.70048819308643,77.2080945968628,Coffee Shop
84,Kingsway Camp,28.698684000000004,77.204675,Hot-Pot,28.702269485589042,77.19757654834768,Food Truck
85,Kingsway Camp,28.698684000000004,77.204675,Café Coffee Day,28.69480155305774,77.20410744643709,Coffee Shop
86,Kingsway Camp,28.698684000000004,77.204675,Pizza Hut,28.699932838104072,77.19741371246307,Pizza Place
87,Kingsway Camp,28.698684000000004,77.204675,Indus Flavour,28.695782,77.204162,Indian Restaurant
88,Kingsway Camp,28.698684000000004,77.204675,chopra maggi point,28.695933308640004,77.20775127410889,Restaurant
89,Kingsway Camp,28.698684000000004,77.204675,Korean restaurant,28.701080427580862,77.20902503434961,Korean Restaurant
90,Kingsway Camp,28.698684000000004,77.204675,Shagun Restaurant,28.69346069082547,77.20478040848754,Chinese Restaurant
91,Kingsway Camp,28.698684000000004,77.204675,Patel Chest Chai Wala,28.69201349889419,77.20814917163693,Tea Room
92,Kingsway Camp,28.698684000000004,77.204675,Gtb Nagar Railway Station,28.707183121238955,77.20675676115992,Train Station
93,Kohat Enclave,28.698014,77.140523,"Cafe 24, City Park",28.705728831986658,77.14352269506296,Coffee Shop
94,Kohat Enclave,28.698014,77.140523,Gulab Sweets,28.699974162781096,77.13701091015463,Snack Place
95,Kohat Enclave,28.698014,77.140523,Pizza Hut,28.69425122980075,77.14955670975652,Pizza Place
96,Kohat Enclave,28.698014,77.140523,Hotel City Park,28.70538164968315,77.1433675289154,Hotel
97,Kohat Enclave,28.698014,77.140523,Sita Ram Diwan Chand Chhole Bhature,28.700147505686903,77.14156468219393,Indian Restaurant
98,Kohat Enclave,28.698014,77.140523,Dilli Haat | दिल्ली हाट,28.695550260699935,77.14962576944839,Arts & Crafts Store
99,Kohat Enclave,28.698014,77.140523,JD Market,28.700977549043778,77.13608264923096,Market
100,Kohat Enclave,28.698014,77.140523,TV Tower,28.694891093061724,77.1493954602319,Building
101,Kohat Enclave,28.698014,77.140523,Pitampura Sports Complex,28.698710300024874,77.15020996644064,Playground
102,Model Town,28.702739,77.194006,Pentamed Canteen,28.699219972029947,77.19174820097714,Snack Place
103,Model Town,28.702739,77.194006,Hot-Pot,28.702269485589042,77.19757654834768,Food Truck
104,Model Town,28.702739,77.194006,Dunkin Donuts,28.70485629225438,77.18991178916777,Donut Shop
105,Model Town,28.702739,77.194006,Pizza Hut,28.699932838104072,77.19741371246307,Pizza Place
106,Model Town,28.702739,77.194006,Domino's Pizza,28.704,77.19,Pizza Place
107,Model Town,28.702739,77.194006,24 *7 kamla nagar,28.69445528714123,77.19534736180339,Department Store
108,Model Town,28.702739,77.194006,cafe coffee day,28.70850581381088,77.19122886657715,Coffee Shop
109,Model Town,28.702739,77.194006,24 SEVEN,28.702955914151072,77.19521821369096,Convenience Store
110,Model Town,28.702739,77.194006,Grand Plaza,28.704231883359686,77.18931952920994,Restaurant
111,Model Town,28.702739,77.194006,McDonald's,28.70563888314002,77.19014763530008,Fast Food Restaurant
112,Model Town,28.702739,77.194006,Cocoberry,28.704221088543783,77.18927102592849,Frozen Yogurt Shop
113,Model Town,28.702739,77.194006,Standards Max,28.705624148574493,77.19011394302419,Men's Store
114,Model Town,28.702739,77.194006,North Gate Orbit Plaza,28.697654500622825,77.19190523575284,Shopping Mall
115,Model Town,28.702739,77.194006,Chatrasaal Stadium,28.704007740744686,77.18743085861206,Track Stadium
116,Narela,28.85708,77.12346600000002,Narela Railway Station,28.858209495803468,77.12418233924228,Train Station
117,Narela,28.85708,77.12346600000002,Fitness Factory,28.858209495803468,77.12418233924228,Business Service
118,Narela,28.85708,77.12346600000002,Ay Döner Et Doner,28.850069,77.128,American Restaurant
119,Pitam Pura,28.703245000000006,77.132225,Hari Om Chole Bhature,28.70967336239139,77.13465474534773,Indian Restaurant
120,Pitam Pura,28.703245000000006,77.132225,Domino's Pizza,28.701,77.124,Pizza Place
121,Pitam Pura,28.703245000000006,77.132225,Gulab Sweets,28.699974162781096,77.13701091015463,Snack Place
122,Pitam Pura,28.703245000000006,77.132225,JD Market,28.700977549043778,77.13608264923096,Market
123,Pitam Pura,28.703245000000006,77.132225,Lotus Leaf,28.708692242547116,77.13585699074078,Indian Restaurant
124,Pitam Pura,28.703245000000006,77.132225,Rohini East Metro Station,28.70760245063888,77.1259331703186,Light Rail Station
125,Pitam Pura,28.703245000000006,77.132225,"Haldiram's@D Mall,Rohini",28.70248201882933,77.12241812045136,Indian Restaurant
126,Pitam Pura,28.703245000000006,77.132225,Sita Ram Diwan Chand Chhole Bhature,28.700147505686903,77.14156468219393,Indian Restaurant
127,Pitam Pura,28.703245000000006,77.132225,Kohat Enclave Metro Station,28.698066,77.140421,Light Rail Station
128,Pitam Pura,28.703245000000006,77.132225,Sai baba chowk,28.708354501361196,77.12390360700064,Bus Station
129,Rani Bagh,28.685982,77.132524,Chunmun Store,28.68997711346211,77.1346271047693,Department Store
130,Rani Bagh,28.685982,77.132524,Raani Bagh Market,28.68676937880406,77.12982316986646,Department Store
131,Rani Bagh,28.685982,77.132524,The Good Food Cafe,28.68828560558589,77.13519407188082,Fast Food Restaurant
132,Rani Bagh,28.685982,77.132524,Shakurbasti Railway Station,28.68052616655129,77.12759613990784,Train Station
133,Rani Bagh,28.685982,77.132524,Pikwik,28.693364440369326,77.13120524513134,Diner
134,Rithala,28.720785,77.107155,Crowne Plaza,28.720047258613377,77.11043310491654,Hotel
135,Rithala,28.720785,77.107155,Adventure Island,28.72413198820313,77.11362473119337,Theme Park
136,Rithala,28.720785,77.107155,McDonald's,28.724240065536936,77.11315273548357,Fast Food Restaurant
137,Rithala,28.720785,77.107155,Shoppers Stop,28.719713914615454,77.10968138708341,Clothing Store
138,Rithala,28.720785,77.107155,Rithala Metro Station,28.72077572422933,77.10717916488647,Light Rail Station
139,Rithala,28.720785,77.107155,Metro Walk Mall,28.72402930658018,77.11332692459308,Shopping Mall
140,Rithala,28.720785,77.107155,More Mega Store,28.71692568011605,77.11434495074039,Department Store
141,Rithala,28.720785,77.107155,Pind Baluchi,28.724008889184102,77.11358539828862,Asian Restaurant
142,Rithala,28.720785,77.107155,Pantaloons,28.723835832359836,77.11403491643017,Clothing Store
143,Rithala,28.720785,77.107155,D mall,28.71477915410365,77.11233797660711,Shopping Mall
144,Rithala,28.720785,77.107155,New York Creamery & Cafe,28.716687,77.114362,Café
145,Rithala,28.720785,77.107155,City Center,28.71698741640009,77.11429607033602,Shopping Mall
146,Rohini Sub City,28.73732,77.09098,TIHCC- Revenue Reputation Research (The International Hotel Commerical Company),28.73706312332655,77.09009242051252,Business Service
147,Shalimar Bagh,28.71302,77.158752,Shalimar bagh club,28.711882012456098,77.15793345551063,Indian Restaurant
148,Shalimar Bagh,28.71302,77.158752,Ever Bake,28.706418633518236,77.16260739997145,Bakery
149,Shalimar Bagh,28.71302,77.158752,Cafe Coffee Day,28.707933601581548,77.16147766720368,Coffee Shop
150,Shalimar Bagh,28.71302,77.158752,Domino's Pizza,28.706,77.163,Pizza Place
151,Shalimar Bagh,28.71302,77.158752,24 SEVEN,28.71353407871715,77.15734929638812,Convenience Store
152,Shalimar Bagh,28.71302,77.158752,McDonald's,28.71331172786057,77.15792783860965,Restaurant
153,Shalimar Bagh,28.71302,77.158752,Shalimar Bagh Club,28.707350921747665,77.1612810813635,Hotel
154,Shalimar Bagh,28.71302,77.158752,AL Market,28.705236639786722,77.16146478980582,Convenience Store
155,Shakti Nagar,28.678699,77.19516800000002,Bille Di Hatti | बिल्ले दी हट्टी,28.681587650228284,77.20171940298643,Breakfast Spot
156,Shakti Nagar,28.678699,77.19516800000002,Mad Over Donuts,28.680756979848095,77.20388888228172,Donut Shop
157,Shakti Nagar,28.678699,77.19516800000002,Gopal Sweets,28.682659955224068,77.19966531984826,Breakfast Spot
158,Shakti Nagar,28.678699,77.19516800000002,Starbucks | स्टारबक्स,28.680849982842012,77.20391012907784,Coffee Shop
159,Shakti Nagar,28.678699,77.19516800000002,Kamla Nagar Market,28.684488757456002,77.2029447555542,Miscellaneous Shop
160,Shakti Nagar,28.678699,77.19516800000002,Chicago Pizza,28.681589774555057,77.20320224761963,Pizza Place
161,Shakti Nagar,28.678699,77.19516800000002,Shakti Nagar,28.68210305063585,77.19670621602154,Playground
162,Shakti Nagar,28.678699,77.19516800000002,Roshanara Garden | रोशनारा बाग,28.67425432760321,77.19936211336687,Park
163,Shakti Nagar,28.678699,77.19516800000002,Ghanta Ghar Market,28.676372069622218,77.20309037619793,Flea Market
164,Shakti Nagar,28.678699,77.19516800000002,Raju Chat Bhandar,28.680198127181672,77.185340773901,Snack Place
165,Bara Hindu Rao,28.661055,77.20671999999998,Changhezi,28.65534550356458,77.20046500101152,Indian Restaurant
166,Bara Hindu Rao,28.661055,77.20671999999998,Choley Kulchey Wala,28.661101478156155,77.2122027894986,Food Truck
167,Bara Hindu Rao,28.661055,77.20671999999998,Pulbangsh metro station,28.66641586680745,77.2074294090271,Metro Station
168,Bara Hindu Rao,28.661055,77.20671999999998,Ashok & Ashok Meat Dhaba,28.65617797422649,77.21057462172848,Dhaba
169,Bara Hindu Rao,28.661055,77.20671999999998,"Canteen,Delhi University",28.666967089910766,77.2088004547849,Fast Food Restaurant
170,Bara Hindu Rao,28.661055,77.20671999999998,foodholic,28.654930431106735,77.20436096191406,Café
171,Bara Hindu Rao,28.661055,77.20671999999998,Delhi Kishan Ganj Railway Station,28.663164067441667,77.19933965359665,Train Station
172,Bara Hindu Rao,28.661055,77.20671999999998,Shidipura,28.653451125094556,77.20404488244918,Gift Shop
173,Bara Hindu Rao,28.661055,77.20671999999998,Prem dhaba,28.65503065442729,77.20064231323143,Asian Restaurant
174,Bara Hindu Rao,28.661055,77.20671999999998,Nand Di Hatti,28.656689671382107,77.21536923091118,Breakfast Spot
175,Bara Hindu Rao,28.661055,77.20671999999998,Pratap Nagar Metro Station,28.666660624691875,77.19888925552368,Light Rail Station
176,Bara Hindu Rao,28.661055,77.20671999999998,Mitticool,28.66934351017921,77.21058905124664,Business Service
177,Chandni Chowk,28.659731,77.234459,Red Fort Archaeological Museum | लाल किला पुरातत्व संग्रहालय (Red Fort Archaeological Museum),28.655964042955148,77.23765543361783,Museum
178,Chandni Chowk,28.659731,77.234459,Jalebi Wala | जलेबी वाला,28.656177651209596,77.23352648405536,Dessert Shop
179,Chandni Chowk,28.659731,77.234459,Haveli Dharampura,28.65324701401681,77.232309176437,Hotel
180,Chandni Chowk,28.659731,77.234459,Red Fort | Lal Qila | लाल क़िला | لال قلعہ (Red Fort (Lal Qila)),28.655758930875194,77.2419548034668,Monument / Landmark
181,Chandni Chowk,28.659731,77.234459,Parawthe Wale,28.65603318700734,77.23050001546382,Indian Restaurant
182,Chandni Chowk,28.659731,77.234459,Chandni Chowk | चाँदनी चौक (Chandni Chowk),28.656076323925312,77.23073986324933,Market
183,Chandni Chowk,28.659731,77.234459,Jolly Creations Designer Boutique,28.662689090022976,77.2262995390695,Boutique
184,Chandni Chowk,28.659731,77.234459,Haldiram's,28.656288944079645,77.23170543090595,Snack Place
185,Chandni Chowk,28.659731,77.234459,Parathe Wali Gali | पराँठे वाली गली,28.65609952896119,77.2304785201278,Market
186,Chandni Chowk,28.659731,77.234459,Babu Ram Paranthe Wale,28.655820126621173,77.23044812679291,Indian Restaurant
187,Chandni Chowk,28.659731,77.234459,Kinari Bazaar | किनारी बाजार,28.6548009358371,77.23301890281758,Flea Market
188,Chandni Chowk,28.659731,77.234459,McDonald's,28.661166313684927,77.22759628817572,Fast Food Restaurant
189,Chandni Chowk,28.659731,77.234459,Nai Sarak | नई सड़क,28.65283927807197,77.22870777607294,Paper / Office Supplies Store
190,Chandni Chowk,28.659731,77.234459,McDonald's,28.656161882924813,77.23420838244962,Fast Food Restaurant
191,Chandni Chowk,28.659731,77.234459,McDonald's,28.66128895525179,77.22716404005617,Fast Food Restaurant
192,Chandni Chowk,28.659731,77.234459,Natraj | नटराज,28.656357336560394,77.23058723790143,Snack Place
193,Chandni Chowk,28.659731,77.234459,Pt. Gaya Prasad Shiv Charan Paranthewale | पंडित गया प्रसाद शिव चरण परांठे वाले,28.656027192178698,77.23043753835134,Indian Restaurant
194,Chandni Chowk,28.659731,77.234459,Ganga Bhojnayala,28.6561928700265,77.2304423499098,Indian Restaurant
195,Chandni Chowk,28.659731,77.234459,Kashmere Gate,28.663699361958138,77.22967068287404,Historic Site
196,Chandni Chowk,28.659731,77.234459,Hotel Tara Palace,28.654309627473666,77.23420892568785,Hotel
197,Chandni Chowk,28.659731,77.234459,Comesum,28.660668497816566,77.22781022853489,Restaurant
198,Chandni Chowk,28.659731,77.234459,Bikanerwala,28.656673589194828,77.22512066388722,Vegetarian / Vegan Restaurant
199,Chandni Chowk,28.659731,77.234459,Old Delhi Railway Station (DLI),28.660579163305297,77.22856521606445,Train Station
200,Chawri Bazaar,28.649927,77.229788,Karim's | करीम | کریم (Karim's),28.64949759295152,77.2336908547362,Indian Restaurant
201,Chawri Bazaar,28.649927,77.229788,Jama Masjid  |जामा मस्जिद | جامع مسجد (Jama Masjid),28.650135601332995,77.23354094263017,Mosque
202,Chawri Bazaar,28.649927,77.229788,Haveli Dharampura,28.65324701401681,77.232309176437,Hotel
203,Chawri Bazaar,28.649927,77.229788,Al Jawahar | अल जवाहर | امام جواہر,28.649608846249652,77.23355530889293,Indian Restaurant
204,Chawri Bazaar,28.649927,77.229788,Chawri Bazaar | चावड़ी बाजार,28.649770989776663,77.22736358642578,Hardware Store
205,Chawri Bazaar,28.649927,77.229788,Parawthe Wale,28.65603318700734,77.23050001546382,Indian Restaurant
206,Chawri Bazaar,28.649927,77.229788,Chandni Chowk | चाँदनी चौक (Chandni Chowk),28.656076323925312,77.23073986324933,Market
207,Chawri Bazaar,28.649927,77.229788,Nai Sarak | नई सड़क,28.65283927807197,77.22870777607294,Paper / Office Supplies Store
208,Chawri Bazaar,28.649927,77.229788,Jalebi Wala | जलेबी वाला,28.656177651209596,77.23352648405536,Dessert Shop
209,Chawri Bazaar,28.649927,77.229788,Parathe Wali Gali | पराँठे वाली गली,28.65609952896119,77.2304785201278,Market
210,Chawri Bazaar,28.649927,77.229788,Haldiram's,28.656288944079645,77.23170543090595,Snack Place
211,Chawri Bazaar,28.649927,77.229788,Babu Ram Paranthe Wale,28.655820126621173,77.23044812679291,Indian Restaurant
212,Chawri Bazaar,28.649927,77.229788,Kinari Bazaar | किनारी बाजार,28.6548009358371,77.23301890281758,Flea Market
213,Chawri Bazaar,28.649927,77.229788,KFC,28.644982021197148,77.22350390164345,Fast Food Restaurant
214,Chawri Bazaar,28.649927,77.229788,Pt. Gaya Prasad Shiv Charan Paranthewale | पंडित गया प्रसाद शिव चरण परांठे वाले,28.656027192178698,77.23043753835134,Indian Restaurant
215,Chawri Bazaar,28.649927,77.229788,Natraj | नटराज,28.656357336560394,77.23058723790143,Snack Place
216,Chawri Bazaar,28.649927,77.229788,McDonald's,28.656161882924813,77.23420838244962,Fast Food Restaurant
217,Chawri Bazaar,28.649927,77.229788,Chawri Bazar | चावड़ी बाजार Metro Station,28.649243733300782,77.22656965255737,Light Rail Station
218,Chawri Bazaar,28.649927,77.229788,Hotel Tara Palace,28.654309627473666,77.23420892568785,Hotel
219,Chawri Bazaar,28.649927,77.229788,Ganga Bhojnayala,28.6561928700265,77.2304423499098,Indian Restaurant
220,Chawri Bazaar,28.649927,77.229788,Ramlila Ground,28.642031351828596,77.23083436489105,Campground
221,Civil Lines,28.676857,77.22505699999998,moets,28.678014772437493,77.2247389303534,Chinese Restaurant
222,Civil Lines,28.676857,77.22505699999998,Maidens Hotel,28.67437701477759,77.22645211830836,Hotel
223,Civil Lines,28.676857,77.22505699999998,The Embassy,28.676555564617807,77.2249690933671,Indian Restaurant
224,Civil Lines,28.676857,77.22505699999998,1 UP,28.676463415350646,77.22515434619861,Italian Restaurant
225,Civil Lines,28.676857,77.22505699999998,Civil Lines Metro Station,28.677042,77.22492,Light Rail Station
226,Civil Lines,28.676857,77.22505699999998,The Exchange Store,28.67679919227412,77.22518802850038,Convenience Store
227,Civil Lines,28.676857,77.22505699999998,Jain Pan House,28.67784178842725,77.22490172862902,Smoke Shop
228,Civil Lines,28.676857,77.22505699999998,Best Of Asia Village,28.676904,77.225201,Asian Restaurant
229,Civil Lines,28.676857,77.22505699999998,The Lounge,28.675218903882744,77.22730725930253,Café
230,Civil Lines,28.676857,77.22505699999998,Tibetan Market,28.672576677638705,77.2310654430255,Flea Market
231,Civil Lines,28.676857,77.22505699999998,Yamuna,28.671580935691306,77.23223864545793,Lake
232,Dariba Kalan,28.654602,77.233379,Haveli Dharampura,28.65324701401681,77.232309176437,Hotel
233,Dariba Kalan,28.654602,77.233379,Jalebi Wala | जलेबी वाला,28.656177651209596,77.23352648405536,Dessert Shop
234,Dariba Kalan,28.654602,77.233379,Karim's | करीम | کریم (Karim's),28.64949759295152,77.2336908547362,Indian Restaurant
235,Dariba Kalan,28.654602,77.233379,Jama Masjid  |जामा मस्जिद | جامع مسجد (Jama Masjid),28.650135601332995,77.23354094263017,Mosque
236,Dariba Kalan,28.654602,77.233379,Red Fort Archaeological Museum | लाल किला पुरातत्व संग्रहालय (Red Fort Archaeological Museum),28.655964042955148,77.23765543361783,Museum
237,Dariba Kalan,28.654602,77.233379,Parawthe Wale,28.65603318700734,77.23050001546382,Indian Restaurant
238,Dariba Kalan,28.654602,77.233379,Chandni Chowk | चाँदनी चौक (Chandni Chowk),28.656076323925312,77.23073986324933,Market
239,Dariba Kalan,28.654602,77.233379,Haldiram's,28.656288944079645,77.23170543090595,Snack Place
240,Dariba Kalan,28.654602,77.233379,Red Fort | Lal Qila | लाल क़िला | لال قلعہ (Red Fort (Lal Qila)),28.655758930875194,77.2419548034668,Monument / Landmark
241,Dariba Kalan,28.654602,77.233379,Parathe Wali Gali | पराँठे वाली गली,28.65609952896119,77.2304785201278,Market
242,Dariba Kalan,28.654602,77.233379,Al Jawahar | अल जवाहर | امام جواہر,28.649608846249652,77.23355530889293,Indian Restaurant
243,Dariba Kalan,28.654602,77.233379,Babu Ram Paranthe Wale,28.655820126621173,77.23044812679291,Indian Restaurant
244,Dariba Kalan,28.654602,77.233379,Kinari Bazaar | किनारी बाजार,28.6548009358371,77.23301890281758,Flea Market
245,Dariba Kalan,28.654602,77.233379,Nai Sarak | नई सड़क,28.65283927807197,77.22870777607294,Paper / Office Supplies Store
246,Dariba Kalan,28.654602,77.233379,Chawri Bazaar | चावड़ी बाजार,28.649770989776663,77.22736358642578,Hardware Store
247,Dariba Kalan,28.654602,77.233379,McDonald's,28.661166313684927,77.22759628817572,Fast Food Restaurant
248,Dariba Kalan,28.654602,77.233379,McDonald's,28.656161882924813,77.23420838244962,Fast Food Restaurant
249,Dariba Kalan,28.654602,77.233379,Pt. Gaya Prasad Shiv Charan Paranthewale | पंडित गया प्रसाद शिव चरण परांठे वाले,28.656027192178698,77.23043753835134,Indian Restaurant
250,Dariba Kalan,28.654602,77.233379,Natraj | नटराज,28.656357336560394,77.23058723790143,Snack Place
251,Dariba Kalan,28.654602,77.233379,Hotel Tara Palace,28.654309627473666,77.23420892568785,Hotel
252,Dariba Kalan,28.654602,77.233379,McDonald's,28.66128895525179,77.22716404005617,Fast Food Restaurant
253,Dariba Kalan,28.654602,77.233379,Ganga Bhojnayala,28.6561928700265,77.2304423499098,Indian Restaurant
254,Dariba Kalan,28.654602,77.233379,Bikanerwala,28.656673589194828,77.22512066388722,Vegetarian / Vegan Restaurant
255,Dariba Kalan,28.654602,77.233379,ashok chat,28.649350624381324,77.22700124489958,Fast Food Restaurant
256,Dariba Kalan,28.654602,77.233379,Chawri Bazar | चावड़ी बाजार Metro Station,28.649243733300782,77.22656965255737,Light Rail Station
257,Dariba Kalan,28.654602,77.233379,Chainaram,28.656618058740026,77.22347583265906,Snack Place
258,Dariba Kalan,28.654602,77.233379,Comesum,28.660668497816566,77.22781022853489,Restaurant
259,Dariba Kalan,28.654602,77.233379,Old Delhi Railway Station (DLI),28.660579163305297,77.22856521606445,Train Station
260,Ghantewala,28.661055,77.20671999999998,Changhezi,28.65534550356458,77.20046500101152,Indian Restaurant
261,Ghantewala,28.661055,77.20671999999998,Choley Kulchey Wala,28.661101478156155,77.2122027894986,Food Truck
262,Ghantewala,28.661055,77.20671999999998,Pulbangsh metro station,28.66641586680745,77.2074294090271,Metro Station
263,Ghantewala,28.661055,77.20671999999998,Ashok & Ashok Meat Dhaba,28.65617797422649,77.21057462172848,Dhaba
264,Ghantewala,28.661055,77.20671999999998,"Canteen,Delhi University",28.666967089910766,77.2088004547849,Fast Food Restaurant
265,Ghantewala,28.661055,77.20671999999998,foodholic,28.654930431106735,77.20436096191406,Café
266,Ghantewala,28.661055,77.20671999999998,Delhi Kishan Ganj Railway Station,28.663164067441667,77.19933965359665,Train Station
267,Ghantewala,28.661055,77.20671999999998,Shidipura,28.653451125094556,77.20404488244918,Gift Shop
268,Ghantewala,28.661055,77.20671999999998,Prem dhaba,28.65503065442729,77.20064231323143,Asian Restaurant
269,Ghantewala,28.661055,77.20671999999998,Nand Di Hatti,28.656689671382107,77.21536923091118,Breakfast Spot
270,Ghantewala,28.661055,77.20671999999998,Pratap Nagar Metro Station,28.666660624691875,77.19888925552368,Light Rail Station
271,Ghantewala,28.661055,77.20671999999998,Mitticool,28.66934351017921,77.21058905124664,Business Service
272,Gulabi Bagh,28.675172,77.189837,Raju Chat Bhandar,28.680198127181672,77.185340773901,Snack Place
273,Gulabi Bagh,28.675172,77.189837,Roshanara Garden | रोशनारा बाग,28.67425432760321,77.19936211336687,Park
274,Gulabi Bagh,28.675172,77.189837,"Moments mall, kirti nagar",28.670420532801597,77.18183658400649,Shopping Mall
275,Gulabi Bagh,28.675172,77.189837,Shastri Nagar | शास्त्री नगर Metro Station,28.67010695812553,77.18190498813311,Light Rail Station
276,Kamla Nagar,28.677891,77.205338,Mad Over Donuts,28.680756979848095,77.20388888228172,Donut Shop
277,Kamla Nagar,28.677891,77.205338,Starbucks | स्टारबक्स,28.680849982842012,77.20391012907784,Coffee Shop
278,Kamla Nagar,28.677891,77.205338,Bille Di Hatti | बिल्ले दी हट्टी,28.681587650228284,77.20171940298643,Breakfast Spot
279,Kamla Nagar,28.677891,77.205338,Kamla Nagar Market,28.684488757456002,77.2029447555542,Miscellaneous Shop
280,Kamla Nagar,28.677891,77.205338,Chicago Pizza,28.681589774555057,77.20320224761963,Pizza Place
281,Kamla Nagar,28.677891,77.205338,Dunkin Donuts,28.680001703973897,77.20836252340777,Donut Shop
282,Kamla Nagar,28.677891,77.205338,Gopal Sweets,28.682659955224068,77.19966531984826,Breakfast Spot
283,Kamla Nagar,28.677891,77.205338,QD's,28.6815524356186,77.20708240701326,Dumpling Restaurant
284,Kamla Nagar,28.677891,77.205338,24 SEVEN,28.67873199478196,77.20803734910325,Grocery Store
285,Kamla Nagar,28.677891,77.205338,Domino's Pizza,28.679,77.208,Pizza Place
286,Kamla Nagar,28.677891,77.205338,McDonald's,28.681040179896716,77.20772246694133,Fast Food Restaurant
287,Kamla Nagar,28.677891,77.205338,Chache Di Hatti | चाचे दी हट्टी,28.68222280150934,77.20586403776046,Indian Restaurant
288,Kamla Nagar,28.677891,77.205338,cafe coffee day,28.68219216721737,77.20502614974976,Coffee Shop
289,Kamla Nagar,28.677891,77.205338,McDonald's,28.681048464112823,77.20772246694133,Fast Food Restaurant
290,Kamla Nagar,28.677891,77.205338,Shake Square,28.681605724165333,77.2072396150087,Café
291,Kamla Nagar,28.677891,77.205338,Subway,28.679506883537428,77.20832368966602,Sandwich Place
292,Kamla Nagar,28.677891,77.205338,Bercos,28.680839798956594,77.20797528620804,Chinese Restaurant
293,Kamla Nagar,28.677891,77.205338,Momo's Point,28.681478582954096,77.20706679573026,Chinese Restaurant
294,Kamla Nagar,28.677891,77.205338,Ghanta Ghar Market,28.676372069622218,77.20309037619793,Flea Market
295,Kamla Nagar,28.677891,77.205338,KFC,28.68060523901767,77.208187452478,Burger Joint
296,Kamla Nagar,28.677891,77.205338,Nukkad Wala,28.679703,77.20828,Snack Place
297,Kamla Nagar,28.677891,77.205338,Giani's Ice Cream Parlour,28.680389652924056,77.20840182500781,Dessert Shop
298,Kamla Nagar,28.677891,77.205338,Fruit juice corner,28.68073523555038,77.20802991131264,Juice Bar
299,Kamla Nagar,28.677891,77.205338,CCD kamla nagar,28.68179590840039,77.20704871955274,Café
300,Kamla Nagar,28.677891,77.205338,Roshanara Garden | रोशनारा बाग,28.67425432760321,77.19936211336687,Park
301,Kamla Nagar,28.677891,77.205338,Shakti Nagar,28.68210305063585,77.19670621602154,Playground
302,Kashmiri Gate,28.665567,77.228819,Jolly Creations Designer Boutique,28.662689090022976,77.2262995390695,Boutique
303,Kashmiri Gate,28.665567,77.228819,Kake Di Hatti | काके दी हट्टी,28.658049584701654,77.2233770564683,Indian Restaurant
304,Kashmiri Gate,28.665567,77.228819,McDonald's,28.661166313684927,77.22759628817572,Fast Food Restaurant
305,Kashmiri Gate,28.665567,77.228819,Domino's Pizza,28.668,77.228,Pizza Place
306,Kashmiri Gate,28.665567,77.228819,McDonald's,28.66128895525179,77.22716404005617,Fast Food Restaurant
307,Kashmiri Gate,28.665567,77.228819,McDonald's,28.667931115955998,77.22960594046542,Fast Food Restaurant
308,Kashmiri Gate,28.665567,77.228819,McDonald's,28.667987929894792,77.22909511030537,American Restaurant
309,Kashmiri Gate,28.665567,77.228819,Kashmere Gate,28.663699361958138,77.22967068287404,Historic Site
310,Kashmiri Gate,28.665567,77.228819,Nirula's Express (Kashmiri Gate Metro Station),28.6679220096324,77.22910633736561,Fast Food Restaurant
311,Kashmiri Gate,28.665567,77.228819,ISBT Kashmere Gate,28.668930062658884,77.23083550369039,Bus Station
312,Kashmiri Gate,28.665567,77.228819,ISBT-Kashmiri Gate,28.66906468355291,77.23087458602427,Bus Station
313,Kashmiri Gate,28.665567,77.228819,Yamuna,28.671580935691306,77.23223864545793,Lake
314,Kashmiri Gate,28.665567,77.228819,Tibetan Market,28.672576677638705,77.2310654430255,Flea Market
315,Kotwali,28.658598,77.231084,Parawthe Wale,28.65603318700734,77.23050001546382,Indian Restaurant
316,Kotwali,28.658598,77.231084,Chandni Chowk | चाँदनी चौक (Chandni Chowk),28.656076323925312,77.23073986324933,Market
317,Kotwali,28.658598,77.231084,Haveli Dharampura,28.65324701401681,77.232309176437,Hotel
318,Kotwali,28.658598,77.231084,Jalebi Wala | जलेबी वाला,28.656177651209596,77.23352648405536,Dessert Shop
319,Kotwali,28.658598,77.231084,Jolly Creations Designer Boutique,28.662689090022976,77.2262995390695,Boutique
320,Kotwali,28.658598,77.231084,Red Fort Archaeological Museum | लाल किला पुरातत्व संग्रहालय (Red Fort Archaeological Museum),28.655964042955148,77.23765543361783,Museum
321,Kotwali,28.658598,77.231084,Haldiram's,28.656288944079645,77.23170543090595,Snack Place
322,Kotwali,28.658598,77.231084,Spice Market,28.65728706392764,77.22259509232056,Food & Drink Shop
323,Kotwali,28.658598,77.231084,Parathe Wali Gali | पराँठे वाली गली,28.65609952896119,77.2304785201278,Market
324,Kotwali,28.658598,77.231084,Kake Di Hatti | काके दी हट्टी,28.658049584701654,77.2233770564683,Indian Restaurant
325,Kotwali,28.658598,77.231084,Jama Masjid  |जामा मस्जिद | جامع مسجد (Jama Masjid),28.650135601332995,77.23354094263017,Mosque
326,Kotwali,28.658598,77.231084,Babu Ram Paranthe Wale,28.655820126621173,77.23044812679291,Indian Restaurant
327,Kotwali,28.658598,77.231084,Giani's Di Hatti Rabri Faluda,28.65797613604954,77.22327373577443,Dessert Shop
328,Kotwali,28.658598,77.231084,McDonald's,28.661166313684927,77.22759628817572,Fast Food Restaurant
329,Kotwali,28.658598,77.231084,Kinari Bazaar | किनारी बाजार,28.6548009358371,77.23301890281758,Flea Market
330,Kotwali,28.658598,77.231084,Nai Sarak | नई सड़क,28.65283927807197,77.22870777607294,Paper / Office Supplies Store
331,Kotwali,28.658598,77.231084,Giani Kulfi,28.657846916335412,77.22323113685417,Dessert Shop
332,Kotwali,28.658598,77.231084,Natraj | नटराज,28.656357336560394,77.23058723790143,Snack Place
333,Kotwali,28.658598,77.231084,McDonald's,28.66128895525179,77.22716404005617,Fast Food Restaurant
334,Kotwali,28.658598,77.231084,Pt. Gaya Prasad Shiv Charan Paranthewale | पंडित गया प्रसाद शिव चरण परांठे वाले,28.656027192178698,77.23043753835134,Indian Restaurant
335,Kotwali,28.658598,77.231084,McDonald's,28.656161882924813,77.23420838244962,Fast Food Restaurant
336,Kotwali,28.658598,77.231084,Ganga Bhojnayala,28.6561928700265,77.2304423499098,Indian Restaurant
337,Kotwali,28.658598,77.231084,Kashmere Gate,28.663699361958138,77.22967068287404,Historic Site
338,Kotwali,28.658598,77.231084,Hotel Tara Palace,28.654309627473666,77.23420892568785,Hotel
339,Kotwali,28.658598,77.231084,Bikanerwala,28.656673589194828,77.22512066388722,Vegetarian / Vegan Restaurant
340,Kotwali,28.658598,77.231084,Chainaram,28.656618058740026,77.22347583265906,Snack Place
341,Lahori Gate,28.656841,77.21853399999998,Spice Market,28.65728706392764,77.22259509232056,Food & Drink Shop
342,Lahori Gate,28.656841,77.21853399999998,Kake Di Hatti | काके दी हट्टी,28.658049584701654,77.2233770564683,Indian Restaurant
343,Lahori Gate,28.656841,77.21853399999998,Giani's Di Hatti Rabri Faluda,28.65797613604954,77.22327373577443,Dessert Shop
344,Lahori Gate,28.656841,77.21853399999998,Jolly Creations Designer Boutique,28.662689090022976,77.2262995390695,Boutique
345,Lahori Gate,28.656841,77.21853399999998,Giani Kulfi,28.657846916335412,77.22323113685417,Dessert Shop
346,Lahori Gate,28.656841,77.21853399999998,Sadar Bazar | सदर बाजार,28.657674771976044,77.21794611266628,Miscellaneous Shop
347,Lahori Gate,28.656841,77.21853399999998,McDonald's,28.66128895525179,77.22716404005617,Fast Food Restaurant
348,Lahori Gate,28.656841,77.21853399999998,Choley Kulchey Wala,28.661101478156155,77.2122027894986,Food Truck
349,Nehru Vihar,28.710745000000006,77.221174,Birdy's Bakery & Patisserie,28.710996,77.217677,Bakery
350,Nehru Vihar,28.710745000000006,77.221174,Batra Cinema,28.711112116736174,77.21523449045063,Indie Movie Theater
351,Nehru Vihar,28.710745000000006,77.221174,Gelato Italiano,28.710974446585688,77.21378602080287,Ice Cream Shop
352,Nehru Vihar,28.710745000000006,77.221174,Kashmiri Gate,28.714170383520546,77.22810151124453,Market
353,Nehru Vihar,28.710745000000006,77.221174,Burger Express,28.715298549314447,77.21444850137064,Burger Joint
354,Nehru Vihar,28.710745000000006,77.221174,Le Bistrot - Cuisine Et Culture Francaises,28.70288439121257,77.22189273114216,French Restaurant
355,Paharganj,28.641499,77.214061,The Drunkyard Cafe,28.641451,77.215506,Tibetan Restaurant
356,Paharganj,28.641499,77.214061,Tadka,28.640501116044682,77.21320775083299,Indian Restaurant
357,Paharganj,28.641499,77.214061,Hotel Aman International,28.64150391510854,77.21611591484667,Hotel
358,Paharganj,28.641499,77.214061,bloomrooms @ New Delhi Railway Station,28.64553655967833,77.21770059555993,Hotel
359,Paharganj,28.641499,77.214061,My Bar,28.64071598696563,77.21068311768227,Bar
360,Paharganj,28.641499,77.214061,Krishna rooftop cafe,28.641079863493733,77.21366067491157,Indian Chinese Restaurant
361,Paharganj,28.641499,77.214061,Sita Ram Diwan Chand Chole Bhature,28.642323765033268,77.2104165521629,Food
362,Paharganj,28.641499,77.214061,쉼터,28.64149453220881,77.21315160796688,Korean Restaurant
363,Paharganj,28.641499,77.214061,Sagar Ratna,28.635487253836967,77.22064969494076,Indian Restaurant
364,Paharganj,28.641499,77.214061,The Prime Balaji Deluxe @ New Delhi Railway Station,28.645246634338402,77.21743343727594,Hotel
365,Paharganj,28.641499,77.214061,Wenger's,28.633411895746676,77.21829192902194,Bakery
366,Paharganj,28.641499,77.214061,The exotic roof top Restaurant,28.641039172929673,77.2136341282525,Indian Restaurant
367,Paharganj,28.641499,77.214061,Nizam's Kathi Kabab | निजा़म काठी कबाब,28.634857957123064,77.21946245007211,Indian Restaurant
368,Paharganj,28.641499,77.214061,Sam's Cafe,28.64110245283158,77.21266027981824,Café
369,Paharganj,28.641499,77.214061,Route 04,28.63488981038038,77.22022508672842,Bar
370,Paharganj,28.641499,77.214061,McDonald's,28.64493401837252,77.21398813391185,Fast Food Restaurant
371,Paharganj,28.641499,77.214061,Appetite German bakery,28.64083923883668,77.21174241329811,Snack Place
372,Paharganj,28.641499,77.214061,The Indian Grill Restaurant,28.646140825017163,77.21513343500447,Restaurant
373,Paharganj,28.641499,77.214061,Jyoti Mahal Guest House Hotel New Delhi,28.6419489302734,77.21182101423967,Hotel
374,Paharganj,28.641499,77.214061,Immigrants Project - A Cafe in History,28.634055048338602,77.21886681496603,Café
375,Paharganj,28.641499,77.214061,Wenger's Deli,28.633657990718326,77.21813923616,Deli / Bodega
376,Paharganj,28.641499,77.214061,Veda Restaurant,28.635210214696645,77.21807926655758,Indian Restaurant
377,Paharganj,28.641499,77.214061,Zostel Delhi,28.64558973661711,77.21737338142562,Hostel
378,Paharganj,28.641499,77.214061,Hotel Amax,28.646791218889298,77.21329464744466,Hotel
379,Paharganj,28.641499,77.214061,Malahotra Restaurant,28.641051838211972,77.21033320184107,Indian Restaurant
380,Paharganj,28.641499,77.214061,Metropolis Hotel / Tourist Home,28.64070258750328,77.21065447108282,Breakfast Spot
381,Paharganj,28.641499,77.214061,Café Festa,28.64101653509604,77.21030160576831,Indian Restaurant
382,Paharganj,28.641499,77.214061,Hotel City Star,28.64466061517661,77.21487207885538,Hotel
383,Paharganj,28.641499,77.214061,Satyam Rooftop Restaurant,28.641198,77.21369,Restaurant
384,Paharganj,28.641499,77.214061,Hotel Godwin Deluxe New Delhi,28.64596590170701,77.21525414008858,Motel
385,Paharganj,28.641499,77.214061,Domino's Pizza,28.646,77.211,Pizza Place
386,Paharganj,28.641499,77.214061,Brown Bread Bakery,28.640883493288246,77.21228700446335,Bakery
387,Paharganj,28.641499,77.214061,natraj yes please,28.640664221000048,77.20944050542066,Hotel
388,Paharganj,28.641499,77.214061,Ramakrishna Ashram Marg Metro Station,28.639131194423946,77.2085666656494,Light Rail Station
389,Paharganj,28.641499,77.214061,Hotel Hari Piorko,28.641100947236374,77.2141135891901,Hotel
390,Paharganj,28.641499,77.214061,Hotel Le Roi | New Delhi,28.64428439239109,77.21061733130924,Hotel
391,Paharganj,28.641499,77.214061,Side Wok,28.632907157973833,77.21633720556096,Chinese Restaurant
392,Paharganj,28.641499,77.214061,Smyle Inn,28.64175487349459,77.21473334912383,Hostel
393,Paharganj,28.641499,77.214061,Vivek Hotel New Delhi,28.64112120405789,77.21265763730432,Hotel
394,Paharganj,28.641499,77.214061,"Subway, Paharganj",28.64078003057344,77.2107935835259,Sandwich Place
395,Paharganj,28.641499,77.214061,Nirula's,28.635506399668113,77.2206047835112,Dessert Shop
396,Paharganj,28.641499,77.214061,Radisson Blu Marina Hotel,28.633896819447788,77.21724092960358,Hotel
397,Paharganj,28.641499,77.214061,Castle 9,28.63465251904893,77.21982223352214,Pub
398,Paharganj,28.641499,77.214061,Main Bazaar,28.641255467630547,77.21380286357513,Road
399,Paharganj,28.641499,77.214061,Hotel Grand Godwin,28.64590912257855,77.21533022876963,Hotel
400,Paharganj,28.641499,77.214061,Gola Sizzlers,28.63518246137902,77.21985990076243,BBQ Joint
401,Paharganj,28.641499,77.214061,Café Nirvana,28.641333522569326,77.21468332222602,Café
402,Paharganj,28.641499,77.214061,The Connaught Hotel,28.63273574411867,77.21308178020092,Miscellaneous Shop
403,Paharganj,28.641499,77.214061,@Live,28.63547073465791,77.2208127573954,Jazz Club
404,Paharganj,28.641499,77.214061,Cottage Yes Please,28.641060546574657,77.21037510655337,Hotel
405,Paharganj,28.641499,77.214061,Amici Cafe,28.645515201144562,77.21780955791473,Pizza Place
406,Paharganj,28.641499,77.214061,brownie cafe,28.645948320269955,77.21596956253052,Coffee Shop
407,Paharganj,28.641499,77.214061,KFC,28.644982021197148,77.22350390164345,Fast Food Restaurant
408,Paharganj,28.641499,77.214061,Karen Cafe,28.646062445619535,77.2146056996046,Restaurant
409,Paharganj,28.641499,77.214061,Ajanta Hotel,28.645819290880418,77.21590289784933,Hotel
410,Paharganj,28.641499,77.214061,Uppal Hotel,28.646318,77.215223,Hotel
411,Paharganj,28.641499,77.214061,"Platfrom No. 3, New Delhi Railway Station",28.64277132489119,77.21975382625152,Platform
412,Paharganj,28.641499,77.214061,BABA Hotel,28.647799626952793,77.2174408461612,Hotel
413,Paharganj,28.641499,77.214061,New Delhi Airport Express Station,28.642503033471506,77.2235421288788,Train Station
414,Paharganj,28.641499,77.214061,Chicago Pizza,28.64080055253233,77.20512290378579,Pizza Place
415,Paharganj,28.641499,77.214061,Madame Tussauds,28.63395,77.21687,Museum
416,Paharganj,28.641499,77.214061,"Hira Sweets, CP",28.635157468979756,77.21998961294145,Diner
417,Paharganj,28.641499,77.214061,New Delhi | नई दिल्ली Metro Station,28.64280345814337,77.2233510017395,Metro Station
418,Paharganj,28.641499,77.214061,Hotel Aura,28.646123328189265,77.21476395028103,Hotel
419,Pratap Nagar,28.666687,77.198887,Pratap Nagar Metro Station,28.666660624691875,77.19888925552368,Light Rail Station
420,Pratap Nagar,28.666687,77.198887,Delhi Subzi Mandi Railway Station (SZM),28.668121127109586,77.20027173048291,Train Station
421,Pratap Nagar,28.666687,77.198887,My Idea Store,28.665278,77.196111,Mobile Phone Shop
422,Pratap Nagar,28.666687,77.198887,Delhi Kishan Ganj Railway Station,28.663164067441667,77.19933965359665,Train Station
423,Pratap Nagar,28.666687,77.198887,Rohman Resources LLP,28.66517324103785,77.19339609146118,Mini Golf
424,Pratap Nagar,28.666687,77.198887,Pulbangsh metro station,28.66641586680745,77.2074294090271,Metro Station
425,Pratap Nagar,28.666687,77.198887,Roshanara Garden | रोशनारा बाग,28.67425432760321,77.19936211336687,Park
426,Pratap Nagar,28.666687,77.198887,"Canteen,Delhi University",28.666967089910766,77.2088004547849,Fast Food Restaurant
427,Pul Bangash,28.666376,77.207421,Pulbangsh metro station,28.66641586680745,77.2074294090271,Metro Station
428,Pul Bangash,28.666376,77.207421,Delhi Subzi Mandi Railway Station (SZM),28.668121127109586,77.20027173048291,Train Station
429,Pul Bangash,28.666376,77.207421,Choley Kulchey Wala,28.661101478156155,77.2122027894986,Food Truck
430,Pul Bangash,28.666376,77.207421,Tis Hazari Metro Station,28.66735724015715,77.21624851226807,Light Rail Station
431,Roshanara Bagh,28.673718,77.19932,Mad Over Donuts,28.680756979848095,77.20388888228172,Donut Shop
432,Roshanara Bagh,28.673718,77.19932,Bille Di Hatti | बिल्ले दी हट्टी,28.681587650228284,77.20171940298643,Breakfast Spot
433,Roshanara Bagh,28.673718,77.19932,Starbucks | स्टारबक्स,28.680849982842012,77.20391012907784,Coffee Shop
434,Roshanara Bagh,28.673718,77.19932,Gopal Sweets,28.682659955224068,77.19966531984826,Breakfast Spot
435,Roshanara Bagh,28.673718,77.19932,Chicago Pizza,28.681589774555057,77.20320224761963,Pizza Place
436,Roshanara Bagh,28.673718,77.19932,Roshanara Garden | रोशनारा बाग,28.67425432760321,77.19936211336687,Park
437,Roshanara Bagh,28.673718,77.19932,Ghanta Ghar Market,28.676372069622218,77.20309037619793,Flea Market
438,Roshanara Bagh,28.673718,77.19932,Delhi Subzi Mandi Railway Station (SZM),28.668121127109586,77.20027173048291,Train Station
439,Roshanara Bagh,28.673718,77.19932,"KFC, Bunglow Road",28.680783561127345,77.19794713952676,Fried Chicken Joint
440,Roshanara Bagh,28.673718,77.19932,Shakti Nagar,28.68210305063585,77.19670621602154,Playground
441,Roshanara Bagh,28.673718,77.19932,Sharma Kachodi Waaley,28.68243182992799,77.19931719382215,Breakfast Spot
442,Sadar Bazaar,28.577151,77.111153,dhruv aviation officers mess,28.577877035393758,77.1046396364504,Farm
443,Sadar Bazaar,28.577151,77.111153,The Cellar,28.571927402984727,77.11690617373887,Liquor Store
444,Sangam Vihar,28.497702,77.239174,Axis Bank ATM,28.498020172119,77.243057250977,ATM
445,Sangam Vihar,28.497702,77.239174,Sunny Mall,28.50263917142079,77.24126815795898,Athletics & Sports
446,Sant Nagar,28.646418,77.091188,Mad Over Donuts,28.6454398758967,77.09256649017334,Donut Shop
447,Sant Nagar,28.646418,77.091188,Tilak nagar Book Market,28.64069988964994,77.09643502172946,Bookstore
448,Sant Nagar,28.646418,77.091188,Khalsa Punjabi Rasoi,28.64006025295579,77.08416077011755,Indian Restaurant
449,Sarai Kale Khan,28.586626000000006,77.25622800000002,Cafe Turtle,28.590370504701156,77.25262361297102,Café
450,Sarai Kale Khan,28.586626000000006,77.25622800000002,Comesum - The Food Junction,28.58970528985822,77.253211613099,Food Court
451,Sarai Kale Khan,28.586626000000006,77.25622800000002,August Kranthi Mumbai Rajdhani,28.587241812139638,77.2555543234804,Moving Target
452,Sarai Kale Khan,28.586626000000006,77.25622800000002,Hazrat Nizamuddin Railway Station (NZM),28.588511067944086,77.2540277761072,Train Station
453,Sarai Kale Khan,28.586626000000006,77.25622800000002,Sarai Kale Khan ISBT,28.5887208685453,77.25854562541637,Bus Station
454,Sarai Kale Khan,28.586626000000006,77.25622800000002,Platform No. 5,28.589107794176805,77.25411196122096,Train Station
455,Sarai Kale Khan,28.586626000000006,77.25622800000002,Bhogal Market,28.582872361853575,77.24842652458784,Flea Market
456,Sarai Kale Khan,28.586626000000006,77.25622800000002,Novelties,28.583783950370115,77.24910564843847,Sandwich Place
457,Sarai Kale Khan,28.586626000000006,77.25622800000002,Khan-i-Khanan,28.58897863223704,77.24854438933869,Park
458,Sarai Rohilla,28.667873,77.190267,My Idea Store,28.665278,77.196111,Mobile Phone Shop
459,Sarai Rohilla,28.667873,77.190267,Pratap Nagar Metro Station,28.666660624691875,77.19888925552368,Light Rail Station
460,Sarai Rohilla,28.667873,77.190267,Shastri Nagar | शास्त्री नगर Metro Station,28.67010695812553,77.18190498813311,Light Rail Station
461,Sarai Rohilla,28.667873,77.190267,Delhi Subzi Mandi Railway Station (SZM),28.668121127109586,77.20027173048291,Train Station
462,Shakti Nagar,28.678699,77.19516800000002,Bille Di Hatti | बिल्ले दी हट्टी,28.681587650228284,77.20171940298643,Breakfast Spot
463,Shakti Nagar,28.678699,77.19516800000002,Mad Over Donuts,28.680756979848095,77.20388888228172,Donut Shop
464,Shakti Nagar,28.678699,77.19516800000002,Gopal Sweets,28.682659955224068,77.19966531984826,Breakfast Spot
465,Shakti Nagar,28.678699,77.19516800000002,Starbucks | स्टारबक्स,28.680849982842012,77.20391012907784,Coffee Shop
466,Shakti Nagar,28.678699,77.19516800000002,Kamla Nagar Market,28.684488757456002,77.2029447555542,Miscellaneous Shop
467,Shakti Nagar,28.678699,77.19516800000002,Chicago Pizza,28.681589774555057,77.20320224761963,Pizza Place
468,Shakti Nagar,28.678699,77.19516800000002,Shakti Nagar,28.68210305063585,77.19670621602154,Playground
469,Shakti Nagar,28.678699,77.19516800000002,Roshanara Garden | रोशनारा बाग,28.67425432760321,77.19936211336687,Park
470,Shakti Nagar,28.678699,77.19516800000002,Ghanta Ghar Market,28.676372069622218,77.20309037619793,Flea Market
471,Shakti Nagar,28.678699,77.19516800000002,Raju Chat Bhandar,28.680198127181672,77.185340773901,Snack Place
472,Shastri Nagar,28.674831,77.180337,Pizza hut,28.67381480668154,77.17839182838226,Pizza Place
473,Shastri Nagar,28.674831,77.180337,Shastri Nagar | शास्त्री नगर Metro Station,28.67010695812553,77.18190498813311,Light Rail Station
474,Shastri Nagar,28.674831,77.180337,Hotel Clark Heights,28.67107841811236,77.17599042164764,Hotel
475,Shastri Nagar,28.674831,77.180337,Raju Chat Bhandar,28.680198127181672,77.185340773901,Snack Place
476,Shastri Nagar,28.674831,77.180337,Inderlok Metro Station,28.67324357361059,77.170355245471,Train Station
477,Tees Hazari,28.66667,77.21667,Tis Hazari Metro Station,28.66735724015715,77.21624851226807,Light Rail Station
478,Tees Hazari,28.66667,77.21667,Choley Kulchey Wala,28.661101478156155,77.2122027894986,Food Truck
479,Tees Hazari,28.66667,77.21667,"Canteen,Delhi University",28.666967089910766,77.2088004547849,Fast Food Restaurant
480,Tees Hazari,28.66667,77.21667,Pulbangsh metro station,28.66641586680745,77.2074294090271,Metro Station
481,Tees Hazari,28.66667,77.21667,cloth market,28.659148604336178,77.22208360266256,Clothing Store
482,Timarpur,28.700714,77.217323,Domino's Pizza,28.698,77.21,Pizza Place
483,Timarpur,28.700714,77.217323,cafe coffee day,28.70048819308643,77.2080945968628,Coffee Shop
484,Timarpur,28.700714,77.217323,Vishwavidyalaya Metro Station,28.6950298369273,77.21471831202507,Light Rail Station
485,Timarpur,28.700714,77.217323,Korean restaurant,28.701080427580862,77.20902503434961,Korean Restaurant
486,Timarpur,28.700714,77.217323,Majnu Ka Tila Bus Stop,28.701773554023347,77.22728192606391,Bus Station
487,Wazirabad,28.433762,77.087757,Tau Devi Lal Biodiversity Park,28.429749227359352,77.0911860218756,Park
488,Wazirabad,28.433762,77.087757,Area 69,28.44069250120237,77.0878553582097,Beer Garden
489,Wazirabad,28.433762,77.087757,Tibetan kitchen,28.440614044781714,77.08783081285726,Thai Restaurant
490,Wazirabad,28.433762,77.087757,Route 69,28.440719545662425,77.08791063339633,Indian Restaurant
491,Wazirabad,28.433762,77.087757,Indian Chopsticks,28.434277154347548,77.0841158071834,Snack Place
492,Wazirabad,28.433762,77.087757,Discovery Wines,28.434222937373754,77.09215828434913,Liquor Store
493,Wazirabad,28.433762,77.087757,"Wazirabad, Sec-56, Gurgaon,",28.429886183516064,77.09198968448445,Arcade
494,Wazirabad,28.433762,77.087757,Hachi Ba,28.438691793630063,77.08876938162808,Chinese Restaurant
495,Wazirabad,28.433762,77.087757,Wazirabad Mandi,28.430401438594483,77.09308557937278,Flea Market
496,Wazirabad,28.433762,77.087757,leons,28.427957318812137,77.09073079801158,Asian Restaurant
497,Wazirabad,28.433762,77.087757,PHD,28.42809722383997,77.09569882681014,Pizza Place
498,Babarpur,28.687542,77.280539,Royal Enfield Showroom,28.69078,77.2786,Motorcycle Shop
499,Babarpur,28.687542,77.280539,yamuna vihar,28.68981594464307,77.28387603753107,Park
500,Babarpur,28.687542,77.280539,Shahdara,28.682409,77.283024,Chocolate Shop
501,Babarpur,28.687542,77.280539,V-Mart,28.689390298727957,77.28765773449813,Clothing Store
502,Babarpur,28.687542,77.280539,Shivaji park,28.682657407524268,77.28550319213032,Park
503,Babarpur,28.687542,77.280539,Axis Bank ATM,28.69077,77.27365,ATM
504,Babarpur,28.687542,77.280539,Classic Ice Cream Parlour,28.688341979205735,77.28867327328481,Ice Cream Shop
505,Babarpur,28.687542,77.280539,CANTABIL,28.6808567,77.28635,Men's Store
506,Dilshad Garden,28.686892,77.322121,McDonald's,28.683345167332245,77.33099264101794,Fast Food Restaurant
507,Dilshad Garden,28.686892,77.322121,National store,28.6868,77.3238,Department Store
508,Dilshad Garden,28.686892,77.322121,Shop Of Embellishments,28.681250927159887,77.32267856597899,Clothing Store
509,Dilshad Garden,28.686892,77.322121,Vky Games Store.,28.69194291640489,77.31851577758789,Video Game Store
510,Dilshad Garden,28.686892,77.322121,tandoor point,28.681961564185634,77.31793642044067,Indian Restaurant
511,Dilshad Garden,28.686892,77.322121,Chetan Complex,28.68292646324543,77.31575853690019,Market
512,Kabir Nagar,28.686327,77.187898,Shalimar Bagh Club,28.682053889570913,77.18637404091368,Hotel
513,Kabir Nagar,28.686327,77.187898,Raju Chat Bhandar,28.680198127181672,77.185340773901,Snack Place
514,Kabir Nagar,28.686327,77.187898,Raju Chaat Bhandar,28.680132030642913,77.18541939235949,Snack Place
515,Kabir Nagar,28.686327,77.187898,Shakti Nagar,28.68210305063585,77.19670621602154,Playground
516,Mandoli,28.705566,77.316689,Morphedo Technologies Pvt. Ltd.,28.705475752374984,77.31352686882019,Print Shop
517,Mandoli,28.705566,77.316689,AFM PVT LTD,28.70477,77.30960789999995,Tourist Information Center
518,Maujpur,28.689589,77.274074,Axis Bank ATM,28.69077,77.27365,ATM
519,Maujpur,28.689589,77.274074,Royal Enfield Showroom,28.69078,77.2786,Motorcycle Shop
520,Maujpur,28.689589,77.274074,Brewebs Solutions,28.685467616675698,77.27507472038269,IT Services
521,Maujpur,28.689589,77.274074,YES Bank ATM,28.68537,77.26888,ATM
522,Maujpur,28.689589,77.274074,yamuna vihar,28.68981594464307,77.28387603753107,Park
523,Nand Nagri,28.694668,77.30834,Ayaana Foods,28.688321939092315,77.3072992731844,Halal Restaurant
524,Nand Nagri,28.694668,77.30834,Sutta Chowk,28.6978972,77.3000103,Smoke Shop
525,Nand Nagri,28.694668,77.30834,Neeraj Kumar Garg,28.692731217431845,77.29877207487533,Spa
526,Naveen Shahdara,28.6679,77.2983,The Leela Ambience Delhi Convention Hotel,28.66208915530074,77.30242860080803,Hotel
527,Naveen Shahdara,28.6679,77.2983,Kempinski Ambience Hotel,28.661990754430768,77.30166129393263,Hotel Bar
528,Naveen Shahdara,28.6679,77.2983,Metro Cash & Carry,28.66083239162671,77.29757642832259,Department Store
529,Naveen Shahdara,28.6679,77.2983,Barbeque Nation,28.665840013898336,77.30409395334392,BBQ Joint
530,Naveen Shahdara,28.6679,77.2983,"Cafe Knosh, Kempinski Ambience Hotel",28.662125398152014,77.30169704074008,Café
531,Naveen Shahdara,28.6679,77.2983,Park Plaza Hotel,28.658975189667384,77.29795128107071,Hotel
532,Naveen Shahdara,28.6679,77.2983,Sutta Point,28.667508639126304,77.30356870042064,Asian Restaurant
533,Naveen Shahdara,28.6679,77.2983,"Khaaja Chowk, Ginger East",28.666533934550415,77.30393334811927,Indian Restaurant
534,Naveen Shahdara,28.6679,77.2983,Ginger Hotel,28.666544731054657,77.30429799468095,Hotel
535,Naveen Shahdara,28.6679,77.2983,Aggarwal Funcity Mall,28.66063529205805,77.29824471457178,Shopping Mall
536,Naveen Shahdara,28.6679,77.2983,Mansarover Park Metro Station,28.67537011505316,77.30093198323249,Train Station
537,Naveen Shahdara,28.6679,77.2983,Lalit Juice Wala,28.669652501808233,77.3070580517781,Juice Bar
538,Naveen Shahdara,28.6679,77.2983,Fun Cinemas CRM,28.66018802591894,77.3023176696753,Multiplex
539,New Usmanpur,28.680458,77.259323,Pahadi Tea Stall,28.677511,77.261736,Tea Room
540,New Usmanpur,28.680458,77.259323,Spy Software in India,28.675810393887062,77.25305914878845,IT Services
541,New Usmanpur,28.680458,77.259323,Best Western De Aqua,28.672802444394232,77.25928642389867,Hotel
542,Sadatpur,28.721623,77.262839,Intex Smart World,28.717098,77.265221,Electronics Store
543,Sadatpur,28.721623,77.262839,penture shop,28.72569262079883,77.26891076773354,Motorcycle Shop
544,Sadatpur,28.721623,77.262839,The Bolt Agency,28.71793796516823,77.27012872695923,Business Service
545,Sadatpur,28.721623,77.262839,Goel Provision Store,28.72222500440762,77.27223280717108,Convenience Store
546,Sadatpur,28.721623,77.262839,Eternity Mall,28.72232576045625,77.27223280717108,Shopping Mall
547,Shahdara,28.6679,77.2983,The Leela Ambience Delhi Convention Hotel,28.66208915530074,77.30242860080803,Hotel
548,Shahdara,28.6679,77.2983,Kempinski Ambience Hotel,28.661990754430768,77.30166129393263,Hotel Bar
549,Shahdara,28.6679,77.2983,Metro Cash & Carry,28.66083239162671,77.29757642832259,Department Store
550,Shahdara,28.6679,77.2983,Barbeque Nation,28.665840013898336,77.30409395334392,BBQ Joint
551,Shahdara,28.6679,77.2983,"Cafe Knosh, Kempinski Ambience Hotel",28.662125398152014,77.30169704074008,Café
552,Shahdara,28.6679,77.2983,Park Plaza Hotel,28.658975189667384,77.29795128107071,Hotel
553,Shahdara,28.6679,77.2983,Sutta Point,28.667508639126304,77.30356870042064,Asian Restaurant
554,Shahdara,28.6679,77.2983,"Khaaja Chowk, Ginger East",28.666533934550415,77.30393334811927,Indian Restaurant
555,Shahdara,28.6679,77.2983,Ginger Hotel,28.666544731054657,77.30429799468095,Hotel
556,Shahdara,28.6679,77.2983,Aggarwal Funcity Mall,28.66063529205805,77.29824471457178,Shopping Mall
557,Shahdara,28.6679,77.2983,Mansarover Park Metro Station,28.67537011505316,77.30093198323249,Train Station
558,Shahdara,28.6679,77.2983,Lalit Juice Wala,28.669652501808233,77.3070580517781,Juice Bar
559,Shahdara,28.6679,77.2983,Fun Cinemas CRM,28.66018802591894,77.3023176696753,Multiplex
560,Shastri Park,28.63273,77.22001999999998,Connaught Place | कनॉट प्लेस (Connaught Place),28.6327309443951,77.22001768275413,Plaza
561,Shastri Park,28.63273,77.22001999999998,Wenger's,28.633411895746676,77.21829192902194,Bakery
562,Shastri Park,28.63273,77.22001999999998,Naturals Ice Cream,28.634455305513185,77.22213885818994,Ice Cream Shop
563,Shastri Park,28.63273,77.22001999999998,Khan Chacha | खान चाचा | خان چاچا,28.634202294199614,77.22077980678422,Indian Restaurant
564,Shastri Park,28.63273,77.22001999999998,Starbucks Coffee,28.632010831148985,77.21773135560126,Coffee Shop
565,Shastri Park,28.63273,77.22001999999998,Fabindia,28.63201193420627,77.21772910740421,Clothing Store
566,Shastri Park,28.63273,77.22001999999998,Sagar Ratna,28.635487253836967,77.22064969494076,Indian Restaurant
567,Shastri Park,28.63273,77.22001999999998,Odeon Social,28.634414197963707,77.22093550978948,Café
568,Shastri Park,28.63273,77.22001999999998,United Coffee House,28.63247672337289,77.2211199789975,Indian Restaurant
569,Shastri Park,28.63273,77.22001999999998,Farzi Cafe,28.632580798842707,77.22112484247755,Molecular Gastronomy Restaurant
570,Shastri Park,28.63273,77.22001999999998,Nizam's Kathi Kabab | निजा़म काठी कबाब,28.634857957123064,77.21946245007211,Indian Restaurant
571,Shastri Park,28.63273,77.22001999999998,HOTEL SARAVANA BHAVAN,28.632319466435003,77.21644531748599,South Indian Restaurant
572,Shastri Park,28.63273,77.22001999999998,Chaayos,28.631628538643216,77.22036426182864,Café
573,Shastri Park,28.63273,77.22001999999998,Route 04,28.63488981038038,77.22022508672842,Bar
574,Shastri Park,28.63273,77.22001999999998,Nando's,28.630946673402416,77.21972076414269,Portuguese Restaurant
575,Shastri Park,28.63273,77.22001999999998,Rajdhani Thali,28.62999946326596,77.2204011327264,Indian Restaurant
576,Shastri Park,28.63273,77.22001999999998,Johnny Rockets,28.630457,77.219594,Bistro
577,Shastri Park,28.63273,77.22001999999998,Odeon Pan Shop,28.634233629735867,77.22079782501127,Food & Drink Shop
578,Shastri Park,28.63273,77.22001999999998,Unplugged,28.63434534341854,77.22139870930441,Lounge
579,Shastri Park,28.63273,77.22001999999998,Pind Balluchi,28.630318339248806,77.21760032761195,North Indian Restaurant
580,Shastri Park,28.63273,77.22001999999998,Immigrants Project - A Cafe in History,28.634055048338602,77.21886681496603,Café
581,Shastri Park,28.63273,77.22001999999998,Warehouse Cafe,28.633775293123456,77.22101540430111,Lounge
582,Shastri Park,28.63273,77.22001999999998,Warehouse Cafe,28.63372638697029,77.22102407638606,Café
583,Shastri Park,28.63273,77.22001999999998,Tamasha,28.629663327072745,77.22183483476593,Gastropub
584,Shastri Park,28.63273,77.22001999999998,Berco's,28.63240704948879,77.2173230839724,Chinese Restaurant
585,Shastri Park,28.63273,77.22001999999998,Barbeque Nation,28.63025338767433,77.22098501777461,BBQ Joint
586,Shastri Park,28.63273,77.22001999999998,Wenger's Deli,28.633657990718326,77.21813923616,Deli / Bodega
587,Shastri Park,28.63273,77.22001999999998,The Embassy,28.633590069941445,77.22122128391564,Bar
588,Shastri Park,28.63273,77.22001999999998,HOTEL SARAVANA BHAVAN,28.62704114687105,77.21951363035465,South Indian Restaurant
589,Shastri Park,28.63273,77.22001999999998,Cha Bar | चा बार,28.630920473614825,77.2221936228799,Tea Room
590,Shastri Park,28.63273,77.22001999999998,The Imperial,28.625548038159426,77.21866351780929,Hotel
591,Shastri Park,28.63273,77.22001999999998,Lord of the drinks,28.631747627958458,77.2168956566553,Bar
592,Shastri Park,28.63273,77.22001999999998,Panchayat Paan Parlour,28.634073264989183,77.22264498769991,Indian Restaurant
593,Shastri Park,28.63273,77.22001999999998,The Beer Cafe,28.629138722281358,77.2196032154717,Beer Garden
594,Shastri Park,28.63273,77.22001999999998,Burger King,28.63261097267992,77.2207306537611,Fast Food Restaurant
595,Shastri Park,28.63273,77.22001999999998,Japanese Fuji Restaurant,28.63309875268639,77.2221218013156,Japanese Restaurant
596,Shastri Park,28.63273,77.22001999999998,Dunkin' Donuts,28.630181868375203,77.21962210391595,Donut Shop
597,Shastri Park,28.63273,77.22001999999998,Janpath Street Market,28.628644953888774,77.21915874346587,Flea Market
598,Shastri Park,28.63273,77.22001999999998,Smoke House Deli,28.633764,77.221405,Deli / Bodega
599,Shastri Park,28.63273,77.22001999999998,Fresc Co,28.628415028106655,77.21954938989002,Italian Restaurant
600,Shastri Park,28.63273,77.22001999999998,Chew,28.632001527203066,77.22270642208512,Asian Restaurant
601,Shastri Park,28.63273,77.22001999999998,"The Square, Cafe Coffee Day",28.626639961580253,77.21928786545695,Café
602,Shastri Park,28.63273,77.22001999999998,The Vault Cafe,28.630910379338008,77.21988960396206,Bar
603,Shastri Park,28.63273,77.22001999999998,Veda Restaurant,28.635210214696645,77.21807926655758,Indian Restaurant
604,Shastri Park,28.63273,77.22001999999998,Aqua,28.628809037571674,77.21563586358091,Lounge
605,Shastri Park,28.63273,77.22001999999998,Starbucks,28.630105705208507,77.22053962418308,Coffee Shop
606,Shastri Park,28.63273,77.22001999999998,The Spice Route,28.625577291994166,77.21806493444225,Asian Restaurant
607,Shastri Park,28.63273,77.22001999999998,Monsoon Salon & Spa Connaught Place,28.63153437940896,77.22230762243271,Salon / Barbershop
608,Shastri Park,28.63273,77.22001999999998,Haldiram's,28.63422999171808,77.22233494432798,Indian Restaurant
609,Shastri Park,28.63273,77.22001999999998,The Lalit Hotel,28.631110184579857,77.22744966490554,Hotel
610,Shastri Park,28.63273,77.22001999999998,Anand Biryani House,28.62913638616433,77.22012996193826,Indian Restaurant
611,Shastri Park,28.63273,77.22001999999998,Kwality Restaurant,28.629743645035568,77.21743130219578,Indian Restaurant
612,Shastri Park,28.63273,77.22001999999998,1911,28.6255310755684,77.21871499822704,Mediterranean Restaurant
613,Shastri Park,28.63273,77.22001999999998,Side Wok,28.632907157973833,77.21633720556096,Chinese Restaurant
614,Shastri Park,28.63273,77.22001999999998,McDonald's,28.632365736814616,77.21648256126124,Fast Food Restaurant
615,Shastri Park,28.63273,77.22001999999998,Nirula's,28.635506399668113,77.2206047835112,Dessert Shop
616,Shastri Park,28.63273,77.22001999999998,Kitty Su,28.630956869667365,77.22741977281687,Nightclub
617,Shastri Park,28.63273,77.22001999999998,Radisson Blu Marina Hotel,28.633896819447788,77.21724092960358,Hotel
618,Shastri Park,28.63273,77.22001999999998,Jantar Mantar,28.627730762400688,77.21643592080397,Historic Site
619,Shastri Park,28.63273,77.22001999999998,Ugrasen ki Baoli (Agrasen ki Baoli),28.625819967837163,77.22495513815623,Historic Site
620,Shastri Park,28.63273,77.22001999999998,Gola Sizzlers,28.63518246137902,77.21985990076243,BBQ Joint
621,Shastri Park,28.63273,77.22001999999998,Madras Coffee House (since 1935),28.63176562734097,77.21646960559119,Coffee Shop
622,Shastri Park,28.63273,77.22001999999998,Monkey Bar,28.63151670186656,77.21629239593994,Pub
623,Shastri Park,28.63273,77.22001999999998,My Bar Lounge & Restaurant,28.632387528689907,77.21671670393215,Bar
624,Shastri Park,28.63273,77.22001999999998,Café Coffee Day,28.631054,77.21697834826568,Coffee Shop
625,Shastri Park,28.63273,77.22001999999998,@Live,28.63547073465791,77.2208127573954,Jazz Club
626,Shastri Park,28.63273,77.22001999999998,Indian Coffee House,28.630755930400426,77.21605434631832,Café
627,Shastri Park,28.63273,77.22001999999998,The Connaught Hotel,28.63273574411867,77.21308178020092,Miscellaneous Shop
628,Shastri Park,28.63273,77.22001999999998,Fa Yian,28.632793282499158,77.21718821209873,Chinese Restaurant
629,Shastri Park,28.63273,77.22001999999998,Cafe Coffee Day,28.63609948523326,77.22495786591341,Café
630,Shastri Park,28.63273,77.22001999999998,FIRE,28.628737183341777,77.21649767623988,Indian Restaurant
631,Shastri Park,28.63273,77.22001999999998,PVR Rivoli,28.63113875485524,77.2161835964603,Indie Movie Theater
632,Shastri Park,28.63273,77.22001999999998,The Park Hotel,28.628731170539613,77.21650745045316,Hotel
633,Shastri Park,28.63273,77.22001999999998,Shivaji Stadium Airport Metro,28.628858120041254,77.21138434166267,Light Rail Station
634,Shastri Park,28.63273,77.22001999999998,"Hira Sweets, CP",28.635157468979756,77.21998961294145,Diner
635,Shastri Park,28.63273,77.22001999999998,MIST,28.628720062553807,77.21629222049741,Italian Restaurant
636,Shastri Park,28.63273,77.22001999999998,Lady Baga,28.631674,77.21623,Restaurant
637,Shastri Park,28.63273,77.22001999999998,YMCA,28.62739763042509,77.21337898638028,Hotel
638,Shastri Park,28.63273,77.22001999999998,Hotel Blessings,28.640013300098744,77.21646399146064,Hotel
639,Yamuna Vihar,28.699609,77.274474,My Idea Store,28.70034,77.273832,Mobile Phone Shop
640,Yamuna Vihar,28.699609,77.274474,Yamuna Biodiversity Park,28.698583168189987,77.26662681111337,Botanical Garden
641,Yamuna Vihar,28.699609,77.274474,Axis Bank ATM,28.69077,77.27365,ATM
642,Chandni Chowk,28.656076,77.23074,Haveli Dharampura,28.65324701401681,77.232309176437,Hotel
643,Chandni Chowk,28.656076,77.23074,Parawthe Wale,28.65603318700734,77.23050001546382,Indian Restaurant
644,Chandni Chowk,28.656076,77.23074,Chandni Chowk | चाँदनी चौक (Chandni Chowk),28.656076323925312,77.23073986324933,Market
645,Chandni Chowk,28.656076,77.23074,Jalebi Wala | जलेबी वाला,28.656177651209596,77.23352648405536,Dessert Shop
646,Chandni Chowk,28.656076,77.23074,Karim's | करीम | کریم (Karim's),28.64949759295152,77.2336908547362,Indian Restaurant
647,Chandni Chowk,28.656076,77.23074,Jama Masjid  |जामा मस्जिद | جامع مسجد (Jama Masjid),28.650135601332995,77.23354094263017,Mosque
648,Chandni Chowk,28.656076,77.23074,Haldiram's,28.656288944079645,77.23170543090595,Snack Place
649,Chandni Chowk,28.656076,77.23074,Parathe Wali Gali | पराँठे वाली गली,28.65609952896119,77.2304785201278,Market
650,Chandni Chowk,28.656076,77.23074,Red Fort Archaeological Museum | लाल किला पुरातत्व संग्रहालय (Red Fort Archaeological Museum),28.655964042955148,77.23765543361783,Museum
651,Chandni Chowk,28.656076,77.23074,Spice Market,28.65728706392764,77.22259509232056,Food & Drink Shop
652,Chandni Chowk,28.656076,77.23074,Kake Di Hatti | काके दी हट्टी,28.658049584701654,77.2233770564683,Indian Restaurant
653,Chandni Chowk,28.656076,77.23074,Jolly Creations Designer Boutique,28.662689090022976,77.2262995390695,Boutique
654,Chandni Chowk,28.656076,77.23074,Babu Ram Paranthe Wale,28.655820126621173,77.23044812679291,Indian Restaurant
655,Chandni Chowk,28.656076,77.23074,Giani's Di Hatti Rabri Faluda,28.65797613604954,77.22327373577443,Dessert Shop
656,Chandni Chowk,28.656076,77.23074,Kinari Bazaar | किनारी बाजार,28.6548009358371,77.23301890281758,Flea Market
657,Chandni Chowk,28.656076,77.23074,Nai Sarak | नई सड़क,28.65283927807197,77.22870777607294,Paper / Office Supplies Store
658,Chandni Chowk,28.656076,77.23074,Al Jawahar | अल जवाहर | امام جواہر,28.649608846249652,77.23355530889293,Indian Restaurant
659,Chandni Chowk,28.656076,77.23074,Chawri Bazaar | चावड़ी बाजार,28.649770989776663,77.22736358642578,Hardware Store
660,Chandni Chowk,28.656076,77.23074,McDonald's,28.661166313684927,77.22759628817572,Fast Food Restaurant
661,Chandni Chowk,28.656076,77.23074,Giani Kulfi,28.657846916335412,77.22323113685417,Dessert Shop
662,Chandni Chowk,28.656076,77.23074,Pt. Gaya Prasad Shiv Charan Paranthewale | पंडित गया प्रसाद शिव चरण परांठे वाले,28.656027192178698,77.23043753835134,Indian Restaurant
663,Chandni Chowk,28.656076,77.23074,Natraj | नटराज,28.656357336560394,77.23058723790143,Snack Place
664,Chandni Chowk,28.656076,77.23074,McDonald's,28.656161882924813,77.23420838244962,Fast Food Restaurant
665,Chandni Chowk,28.656076,77.23074,McDonald's,28.66128895525179,77.22716404005617,Fast Food Restaurant
666,Chandni Chowk,28.656076,77.23074,Ganga Bhojnayala,28.6561928700265,77.2304423499098,Indian Restaurant
667,Chandni Chowk,28.656076,77.23074,Hotel Tara Palace,28.654309627473666,77.23420892568785,Hotel
668,Chandni Chowk,28.656076,77.23074,Kashmere Gate,28.663699361958138,77.22967068287404,Historic Site
669,Chandni Chowk,28.656076,77.23074,Chawri Bazar | चावड़ी बाजार Metro Station,28.649243733300782,77.22656965255737,Light Rail Station
670,Chandni Chowk,28.656076,77.23074,Comesum,28.660668497816566,77.22781022853489,Restaurant
671,Chandni Chowk,28.656076,77.23074,Old Delhi Railway Station (DLI),28.660579163305297,77.22856521606445,Train Station
672,Daryaganj,28.6443,77.242,Changezi Chicken,28.64375143292846,77.24048581691957,Indian Restaurant
673,Daryaganj,28.6443,77.242,Moti Mahal,28.646522533312474,77.24014482739257,Indian Restaurant
674,Daryaganj,28.6443,77.242,Karim's | करीम | کریم (Karim's),28.64949759295152,77.2336908547362,Indian Restaurant
675,Daryaganj,28.6443,77.242,Feroz Shah Kotla Stadium | फिरोज शाह कोटला स्टेडियम,28.637907077952665,77.24186897277832,Cricket Ground
676,Daryaganj,28.6443,77.242,Hotel Broadway New Delhi,28.641057534471244,77.23790802388555,Hotel
677,Daryaganj,28.6443,77.242,"Ansari Road, Daryaganj",28.6422581036937,77.24153403785718,Road
678,Daryaganj,28.6443,77.242,Stops Hostel Delhi,28.640796944408404,77.23896570534309,Hostel
679,Daryaganj,28.6443,77.242,National Gandhi Museum,28.638918583581898,77.24592643864518,History Museum
680,Daryaganj,28.6443,77.242,Bhaja Govindam,28.641258001072153,77.23601077708814,Indian Restaurant
681,Daryaganj,28.6443,77.242,Comfort Inn The President,28.641009,77.238947,Hotel
682,Daryaganj,28.6443,77.242,Delite Cinemas,28.641347246855624,77.23593391933304,Movie Theater
683,Daryaganj,28.6443,77.242,Thugs,28.640991657951048,77.23811009571011,Hotel Bar
684,Daryaganj,28.6443,77.242,Ambedkar Stadium,28.638985242825356,77.24234908819199,Soccer Stadium
685,Daryaganj,28.6443,77.242,Tara Palace Daryaganj,28.649744,77.243302,Hotel
686,Daryaganj,28.6443,77.242,Meena Bazar | मीना बाज़ार,28.65050142436041,77.23615110703864,Flea Market
687,Daryaganj,28.6443,77.242,Aslam Chicken Corner,28.648283325082538,77.23364759564103,Indian Restaurant
688,Jhandewalan,28.646947,77.199671,Roshan Di Kulfi | रोशन दी क़ुल्फ़ी,28.650427914139385,77.192390835694,Snack Place
689,Jhandewalan,28.646947,77.199671,McDonald's,28.648102486132608,77.19053921453036,Fast Food Restaurant
690,Jhandewalan,28.646947,77.199671,Karim's,28.6445691137323,77.19138782759582,Indian Restaurant
691,Jhandewalan,28.646947,77.199671,Ganesh restaurant,28.648379412159837,77.19282614060553,BBQ Joint
692,Jhandewalan,28.646947,77.199671,Bikanerwala,28.648095699354407,77.19277902128863,Food & Drink Shop
693,Jhandewalan,28.646947,77.199671,Changhezi,28.65534550356458,77.20046500101152,Indian Restaurant
694,Jhandewalan,28.646947,77.199671,Punjab Sweet Corner,28.64658697934928,77.18942718002204,Indian Restaurant
695,Jhandewalan,28.646947,77.199671,Art Of Spices,28.64359753300465,77.19051236773942,Snack Place
696,Jhandewalan,28.646947,77.199671,KFC,28.64803256525285,77.19108539980544,Fast Food Restaurant
697,Jhandewalan,28.646947,77.199671,McDonald's,28.648172534962857,77.19061493150241,Fast Food Restaurant
698,Jhandewalan,28.646947,77.199671,Cafe' Coffee Day,28.647062925349157,77.18960855773713,Coffee Shop
699,Jhandewalan,28.646947,77.199671,Jhandewalan | झंडेवालान Metro Station,28.64408401218538,77.19976902008057,Light Rail Station
700,Jhandewalan,28.646947,77.199671,Hotel C Park Inn,28.647118717719245,77.19581903197505,Hotel
701,Jhandewalan,28.646947,77.199671,Hotel Southern Regency,28.64705935680447,77.19562768936157,Bed & Breakfast
702,Jhandewalan,28.646947,77.199671,Hotel Jivitesh,28.645089160666405,77.19318551616877,Hotel
703,Jhandewalan,28.646947,77.199671,Sushus Jewels,28.649264971518743,77.19124262905653,Jewelry Store
704,Jhandewalan,28.646947,77.199671,Chicago Pizza,28.64080055253233,77.20512290378579,Pizza Place
705,Jhandewalan,28.646947,77.199671,34 Chowringhee Lane,28.643509168470406,77.19052386506416,Burrito Place
706,Karol Bagh,28.6516,77.1886,Roshan Di Kulfi | रोशन दी क़ुल्फ़ी,28.650427914139385,77.192390835694,Snack Place
707,Karol Bagh,28.6516,77.1886,McDonald's,28.648102486132608,77.19053921453036,Fast Food Restaurant
708,Karol Bagh,28.6516,77.1886,Ganesh restaurant,28.648379412159837,77.19282614060553,BBQ Joint
709,Karol Bagh,28.6516,77.1886,Punjab Sweet Corner,28.64658697934928,77.18942718002204,Indian Restaurant
710,Karol Bagh,28.6516,77.1886,Karim's,28.6445691137323,77.19138782759582,Indian Restaurant
711,Karol Bagh,28.6516,77.1886,Bikanerwala,28.648095699354407,77.19277902128863,Food & Drink Shop
712,Karol Bagh,28.6516,77.1886,Suruchi Restaurant,28.647168462765503,77.18869324334683,Indian Restaurant
713,Karol Bagh,28.6516,77.1886,Taj Princess Hotel,28.64595642012375,77.18859778070309,Hotel
714,Karol Bagh,28.6516,77.1886,KFC,28.64803256525285,77.19108539980544,Fast Food Restaurant
715,Karol Bagh,28.6516,77.1886,Art Of Spices,28.64359753300465,77.19051236773942,Snack Place
716,Karol Bagh,28.6516,77.1886,McDonald's,28.648172534962857,77.19061493150241,Fast Food Restaurant
717,Karol Bagh,28.6516,77.1886,Cafe' Coffee Day,28.647062925349157,77.18960855773713,Coffee Shop
718,Karol Bagh,28.6516,77.1886,Domino's Pizza,28.658,77.194,Pizza Place
719,Karol Bagh,28.6516,77.1886,Cafe Coffee Day,28.644371925934724,77.18858093434622,Coffee Shop
720,Karol Bagh,28.6516,77.1886,cafe coffee day,28.655796589800016,77.19607830047607,Coffee Shop
721,Karol Bagh,28.6516,77.1886,Aroma spice,28.64690019749735,77.18900209255025,Restaurant
722,Karol Bagh,28.6516,77.1886,Hotel Southern Regency,28.64705935680447,77.19562768936157,Bed & Breakfast
723,Karol Bagh,28.6516,77.1886,Hotel C Park Inn,28.647118717719245,77.19581903197505,Hotel
724,Karol Bagh,28.6516,77.1886,Big Apple,28.658884575604002,77.19243049621582,Department Store
725,Karol Bagh,28.6516,77.1886,PIND BALLUCHI,28.6511528279827,77.19776745909984,Indian Restaurant
726,Karol Bagh,28.6516,77.1886,Gopal di kulfi,28.65969982169956,77.18934463345356,Dessert Shop
727,Karol Bagh,28.6516,77.1886,Body mantra,28.659600071530363,77.19045639038086,Gym
728,Karol Bagh,28.6516,77.1886,Incredible Home Stay,28.644694371990976,77.18362238601347,Hotel
729,Karol Bagh,28.6516,77.1886,Sunstar Residency Hotel New Delhi,28.645313380074715,77.18252170619155,Hotel
730,Karol Bagh,28.6516,77.1886,Hotel Aster Inn New Delhi,28.647244580750993,77.19659391461063,Hotel
731,Karol Bagh,28.6516,77.1886,34 Chowringhee Lane,28.643509168470406,77.19052386506416,Burrito Place
732,Karol Bagh,28.6516,77.1886,Royal Enfield Zone,28.647157605094495,77.19674552149021,Motorcycle Shop
733,Karol Bagh,28.6516,77.1886,Hotel Walnut Castle,28.64567394902667,77.19585833773795,Hotel
734,Karol Bagh,28.6516,77.1886,Bon Temps ( The Coffee Bar & Tea Lounge),28.64286484938703,77.18679520695189,Café
735,Karol Bagh,28.6516,77.1886,Liberty cinema,28.65955555018356,77.18973209656171,Indie Movie Theater
736,Bara Hindu Rao,28.661055,77.20671999999998,Changhezi,28.65534550356458,77.20046500101152,Indian Restaurant
737,Bara Hindu Rao,28.661055,77.20671999999998,Choley Kulchey Wala,28.661101478156155,77.2122027894986,Food Truck
738,Bara Hindu Rao,28.661055,77.20671999999998,Pulbangsh metro station,28.66641586680745,77.2074294090271,Metro Station
739,Bara Hindu Rao,28.661055,77.20671999999998,Ashok & Ashok Meat Dhaba,28.65617797422649,77.21057462172848,Dhaba
740,Bara Hindu Rao,28.661055,77.20671999999998,"Canteen,Delhi University",28.666967089910766,77.2088004547849,Fast Food Restaurant
741,Bara Hindu Rao,28.661055,77.20671999999998,foodholic,28.654930431106735,77.20436096191406,Café
742,Bara Hindu Rao,28.661055,77.20671999999998,Delhi Kishan Ganj Railway Station,28.663164067441667,77.19933965359665,Train Station
743,Bara Hindu Rao,28.661055,77.20671999999998,Shidipura,28.653451125094556,77.20404488244918,Gift Shop
744,Bara Hindu Rao,28.661055,77.20671999999998,Prem dhaba,28.65503065442729,77.20064231323143,Asian Restaurant
745,Bara Hindu Rao,28.661055,77.20671999999998,Nand Di Hatti,28.656689671382107,77.21536923091118,Breakfast Spot
746,Bara Hindu Rao,28.661055,77.20671999999998,Pratap Nagar Metro Station,28.666660624691875,77.19888925552368,Light Rail Station
747,Bara Hindu Rao,28.661055,77.20671999999998,Mitticool,28.66934351017921,77.21058905124664,Business Service
748,Paharganj,28.642261,77.21552199999998,The Drunkyard Cafe,28.641451,77.215506,Tibetan Restaurant
749,Paharganj,28.642261,77.21552199999998,bloomrooms @ New Delhi Railway Station,28.64553655967833,77.21770059555993,Hotel
750,Paharganj,28.642261,77.21552199999998,Hotel Aman International,28.64150391510854,77.21611591484667,Hotel
751,Paharganj,28.642261,77.21552199999998,Tadka,28.640501116044682,77.21320775083299,Indian Restaurant
752,Paharganj,28.642261,77.21552199999998,Krishna rooftop cafe,28.641079863493733,77.21366067491157,Indian Chinese Restaurant
753,Paharganj,28.642261,77.21552199999998,The Prime Balaji Deluxe @ New Delhi Railway Station,28.645246634338402,77.21743343727594,Hotel
754,Paharganj,28.642261,77.21552199999998,My Bar,28.64071598696563,77.21068311768227,Bar
755,Paharganj,28.642261,77.21552199999998,Sagar Ratna,28.635487253836967,77.22064969494076,Indian Restaurant
756,Paharganj,28.642261,77.21552199999998,Sita Ram Diwan Chand Chole Bhature,28.642323765033268,77.2104165521629,Food
757,Paharganj,28.642261,77.21552199999998,쉼터,28.64149453220881,77.21315160796688,Korean Restaurant
758,Paharganj,28.642261,77.21552199999998,Nizam's Kathi Kabab | निजा़म काठी कबाब,28.634857957123064,77.21946245007211,Indian Restaurant
759,Paharganj,28.642261,77.21552199999998,The exotic roof top Restaurant,28.641039172929673,77.2136341282525,Indian Restaurant
760,Paharganj,28.642261,77.21552199999998,The Indian Grill Restaurant,28.646140825017163,77.21513343500447,Restaurant
761,Paharganj,28.642261,77.21552199999998,Route 04,28.63488981038038,77.22022508672842,Bar
762,Paharganj,28.642261,77.21552199999998,McDonald's,28.64493401837252,77.21398813391185,Fast Food Restaurant
763,Paharganj,28.642261,77.21552199999998,Sam's Cafe,28.64110245283158,77.21266027981824,Café
764,Paharganj,28.642261,77.21552199999998,Immigrants Project - A Cafe in History,28.634055048338602,77.21886681496603,Café
765,Paharganj,28.642261,77.21552199999998,Zostel Delhi,28.64558973661711,77.21737338142562,Hostel
766,Paharganj,28.642261,77.21552199999998,Veda Restaurant,28.635210214696645,77.21807926655758,Indian Restaurant
767,Paharganj,28.642261,77.21552199999998,Wenger's Deli,28.633657990718326,77.21813923616,Deli / Bodega
768,Paharganj,28.642261,77.21552199999998,Appetite German bakery,28.64083923883668,77.21174241329811,Snack Place
769,Paharganj,28.642261,77.21552199999998,Jyoti Mahal Guest House Hotel New Delhi,28.6419489302734,77.21182101423967,Hotel
770,Paharganj,28.642261,77.21552199999998,Hotel Amax,28.646791218889298,77.21329464744466,Hotel
771,Paharganj,28.642261,77.21552199999998,Hotel City Star,28.64466061517661,77.21487207885538,Hotel
772,Paharganj,28.642261,77.21552199999998,Hotel Godwin Deluxe New Delhi,28.64596590170701,77.21525414008858,Motel
773,Paharganj,28.642261,77.21552199999998,Malahotra Restaurant,28.641051838211972,77.21033320184107,Indian Restaurant
774,Paharganj,28.642261,77.21552199999998,Satyam Rooftop Restaurant,28.641198,77.21369,Restaurant
775,Paharganj,28.642261,77.21552199999998,Metropolis Hotel / Tourist Home,28.64070258750328,77.21065447108282,Breakfast Spot
776,Paharganj,28.642261,77.21552199999998,Domino's Pizza,28.646,77.211,Pizza Place
777,Paharganj,28.642261,77.21552199999998,Café Festa,28.64101653509604,77.21030160576831,Indian Restaurant
778,Paharganj,28.642261,77.21552199999998,Hotel Hari Piorko,28.641100947236374,77.2141135891901,Hotel
779,Paharganj,28.642261,77.21552199999998,Smyle Inn,28.64175487349459,77.21473334912383,Hostel
780,Paharganj,28.642261,77.21552199999998,Hotel Grand Godwin,28.64590912257855,77.21533022876963,Hotel
781,Paharganj,28.642261,77.21552199999998,Brown Bread Bakery,28.640883493288246,77.21228700446335,Bakery
782,Paharganj,28.642261,77.21552199999998,Nirula's,28.635506399668113,77.2206047835112,Dessert Shop
783,Paharganj,28.642261,77.21552199999998,Hotel Le Roi | New Delhi,28.64428439239109,77.21061733130924,Hotel
784,Paharganj,28.642261,77.21552199999998,natraj yes please,28.640664221000048,77.20944050542066,Hotel
785,Paharganj,28.642261,77.21552199999998,Ramakrishna Ashram Marg Metro Station,28.639131194423946,77.2085666656494,Light Rail Station
786,Paharganj,28.642261,77.21552199999998,Castle 9,28.63465251904893,77.21982223352214,Pub
787,Paharganj,28.642261,77.21552199999998,Radisson Blu Marina Hotel,28.633896819447788,77.21724092960358,Hotel
788,Paharganj,28.642261,77.21552199999998,Main Bazaar,28.641255467630547,77.21380286357513,Road
789,Paharganj,28.642261,77.21552199999998,Vivek Hotel New Delhi,28.64112120405789,77.21265763730432,Hotel
790,Paharganj,28.642261,77.21552199999998,"Subway, Paharganj",28.64078003057344,77.2107935835259,Sandwich Place
791,Paharganj,28.642261,77.21552199999998,Gola Sizzlers,28.63518246137902,77.21985990076243,BBQ Joint
792,Paharganj,28.642261,77.21552199999998,Café Nirvana,28.641333522569326,77.21468332222602,Café
793,Paharganj,28.642261,77.21552199999998,Amici Cafe,28.645515201144562,77.21780955791473,Pizza Place
794,Paharganj,28.642261,77.21552199999998,@Live,28.63547073465791,77.2208127573954,Jazz Club
795,Paharganj,28.642261,77.21552199999998,KFC,28.644982021197148,77.22350390164345,Fast Food Restaurant
796,Paharganj,28.642261,77.21552199999998,brownie cafe,28.645948320269955,77.21596956253052,Coffee Shop
797,Paharganj,28.642261,77.21552199999998,Cottage Yes Please,28.641060546574657,77.21037510655337,Hotel
798,Paharganj,28.642261,77.21552199999998,Ajanta Hotel,28.645819290880418,77.21590289784933,Hotel
799,Paharganj,28.642261,77.21552199999998,"Platfrom No. 3, New Delhi Railway Station",28.64277132489119,77.21975382625152,Platform
800,Paharganj,28.642261,77.21552199999998,Karen Cafe,28.646062445619535,77.2146056996046,Restaurant
801,Paharganj,28.642261,77.21552199999998,Uppal Hotel,28.646318,77.215223,Hotel
802,Paharganj,28.642261,77.21552199999998,New Delhi Airport Express Station,28.642503033471506,77.2235421288788,Train Station
803,Paharganj,28.642261,77.21552199999998,BABA Hotel,28.647799626952793,77.2174408461612,Hotel
804,Paharganj,28.642261,77.21552199999998,New Delhi | नई दिल्ली Metro Station,28.64280345814337,77.2233510017395,Metro Station
805,Paharganj,28.642261,77.21552199999998,"Hira Sweets, CP",28.635157468979756,77.21998961294145,Diner
806,Paharganj,28.642261,77.21552199999998,Madame Tussauds,28.63395,77.21687,Museum
807,Paharganj,28.642261,77.21552199999998,Hotel Aura,28.646123328189265,77.21476395028103,Hotel
808,Rajender Nagar,28.641949,77.18569000000002,Old Rajender nagar market,28.64184452042195,77.18614761022049,Food & Drink Shop
809,Rajender Nagar,28.641949,77.18569000000002,Subway,28.63977211139003,77.18471182435816,Sandwich Place
810,Rajender Nagar,28.641949,77.18569000000002,Lantern's,28.64318296013676,77.17774563974753,Bar
811,Rajender Nagar,28.641949,77.18569000000002,Karim's,28.6445691137323,77.19138782759582,Indian Restaurant
812,Rajender Nagar,28.641949,77.18569000000002,McDonald's,28.648102486132608,77.19053921453036,Fast Food Restaurant
813,Rajender Nagar,28.641949,77.18569000000002,Jaypee Siddharth,28.6424833171903,77.17554330825806,Hotel
814,Rajender Nagar,28.641949,77.18569000000002,Art Of Spices,28.64359753300465,77.19051236773942,Snack Place
815,Rajender Nagar,28.641949,77.18569000000002,Punjab Sweet Corner,28.64658697934928,77.18942718002204,Indian Restaurant
816,Rajender Nagar,28.641949,77.18569000000002,Taj Princess Hotel,28.64595642012375,77.18859778070309,Hotel
817,Rajender Nagar,28.641949,77.18569000000002,Cafe Coffee Day,28.638417410352208,77.1802352759698,Café
818,Rajender Nagar,28.641949,77.18569000000002,Suruchi Restaurant,28.647168462765503,77.18869324334683,Indian Restaurant
819,Rajender Nagar,28.641949,77.18569000000002,Cafe Coffee Day,28.644371925934724,77.18858093434622,Coffee Shop
820,Rajender Nagar,28.641949,77.18569000000002,Ganesh restaurant,28.648379412159837,77.19282614060553,BBQ Joint
821,Rajender Nagar,28.641949,77.18569000000002,Domino's Pizza,28.642,77.179,Pizza Place
822,Rajender Nagar,28.641949,77.18569000000002,Bikanerwala,28.648095699354407,77.19277902128863,Food & Drink Shop
823,Rajender Nagar,28.641949,77.18569000000002,KFC,28.64803256525285,77.19108539980544,Fast Food Restaurant
824,Rajender Nagar,28.641949,77.18569000000002,Imly,28.644606717766923,77.17859062353016,Fast Food Restaurant
825,Rajender Nagar,28.641949,77.18569000000002,Golds Gym (Pusa Road),28.643321688075496,77.18397559666921,Gym / Fitness Center
826,Rajender Nagar,28.641949,77.18569000000002,McDonald's,28.648172534962857,77.19061493150241,Fast Food Restaurant
827,Rajender Nagar,28.641949,77.18569000000002,Cafe' Coffee Day,28.647062925349157,77.18960855773713,Coffee Shop
828,Rajender Nagar,28.641949,77.18569000000002,Friends Restaurant,28.64173961897958,77.18595848895752,Indian Restaurant
829,Rajender Nagar,28.641949,77.18569000000002,Bon Temps ( The Coffee Bar & Tea Lounge),28.64286484938703,77.18679520695189,Café
830,Rajender Nagar,28.641949,77.18569000000002,Shankar Road Market,28.637637048251886,77.18151648458134,Market
831,Rajender Nagar,28.641949,77.18569000000002,Aroma spice,28.64690019749735,77.18900209255025,Restaurant
832,Rajender Nagar,28.641949,77.18569000000002,McDonald's,28.642594090624414,77.17737757746644,Fast Food Restaurant
833,Rajender Nagar,28.641949,77.18569000000002,Incredible Home Stay,28.644694371990976,77.18362238601347,Hotel
834,Rajender Nagar,28.641949,77.18569000000002,Sunstar Residency Hotel New Delhi,28.645313380074715,77.18252170619155,Hotel
835,Rajender Nagar,28.641949,77.18569000000002,Narula's,28.64374504351912,77.1795129776001,Fast Food Restaurant
836,Rajender Nagar,28.641949,77.18569000000002,Rajendra Place Metro Station,28.642407989765235,77.17826843261719,Light Rail Station
837,Rajender Nagar,28.641949,77.18569000000002,Frameboxx,28.644243070182647,77.17867091041417,Smoke Shop
838,Rajender Nagar,28.641949,77.18569000000002,Amul Scooping Parlour,28.640232,77.1766259999999,Ice Cream Shop
839,Rajender Nagar,28.641949,77.18569000000002,Naivedyam,28.643850959085704,77.17601850188557,Indian Restaurant
840,Rajender Nagar,28.641949,77.18569000000002,"Nehru park,new rajinder nagar",28.635252949523167,77.17919714191636,Park
841,Rajender Nagar,28.641949,77.18569000000002,Gola sizzlers,28.633770127572962,77.18979948132089,Indian Restaurant
842,Sadar Bazaar,28.594433,77.12235,Sadar Bazar Delhi Cantt,28.594432273127737,77.1223497390747,Convenience Store
843,Sadar Bazaar,28.594433,77.12235,Aggarwal Lassi Wala,28.59476977673282,77.12215404724667,Indian Restaurant
844,Sadar Bazaar,28.594433,77.12235,Axis Bank ATM,28.591510772705,77.129447937012,ATM
845,Sadar Bazaar,28.594433,77.12235,Timberland,28.593037741487013,77.11460243067364,Shoe Store
846,Sadar Bazaar,28.594433,77.12235,"Cafe Coffee Day, West Gate Mall, Rajouri Garden",28.59317854727705,77.13013217182127,Café
847,Sadar Bazaar,28.594433,77.12235,Turning point,28.595783138690333,77.13177267790763,Indian Restaurant
848,Sadar Bazaar,28.594433,77.12235,Big Bazar West Gate Mall,28.603297614111348,77.12307549164146,Department Store
849,Barakhamba Road,28.629517,77.22547,Tamasha,28.629663327072745,77.22183483476593,Gastropub
850,Barakhamba Road,28.629517,77.22547,The Lalit Hotel,28.631110184579857,77.22744966490554,Hotel
851,Barakhamba Road,28.629517,77.22547,Naturals Ice Cream,28.634455305513185,77.22213885818994,Ice Cream Shop
852,Barakhamba Road,28.629517,77.22547,Connaught Place | कनॉट प्लेस (Connaught Place),28.6327309443951,77.22001768275413,Plaza
853,Barakhamba Road,28.629517,77.22547,HOTEL SARAVANA BHAVAN,28.62704114687105,77.21951363035465,South Indian Restaurant
854,Barakhamba Road,28.629517,77.22547,Rajdhani Thali,28.62999946326596,77.2204011327264,Indian Restaurant
855,Barakhamba Road,28.629517,77.22547,United Coffee House,28.63247672337289,77.2211199789975,Indian Restaurant
856,Barakhamba Road,28.629517,77.22547,Farzi Cafe,28.632580798842707,77.22112484247755,Molecular Gastronomy Restaurant
857,Barakhamba Road,28.629517,77.22547,The Imperial,28.625548038159426,77.21866351780929,Hotel
858,Barakhamba Road,28.629517,77.22547,Cha Bar | चा बार,28.630920473614825,77.2221936228799,Tea Room
859,Barakhamba Road,28.629517,77.22547,Barbeque Nation,28.63025338767433,77.22098501777461,BBQ Joint
860,Barakhamba Road,28.629517,77.22547,Bengali Market | बंगाली मार्केट | বাংলা বাজার,28.62949840530067,77.23202048881043,Indian Restaurant
861,Barakhamba Road,28.629517,77.22547,Chaayos,28.631628538643216,77.22036426182864,Café
862,Barakhamba Road,28.629517,77.22547,Khan Chacha | खान चाचा | خان چاچا,28.634202294199614,77.22077980678422,Indian Restaurant
863,Barakhamba Road,28.629517,77.22547,Johnny Rockets,28.630457,77.219594,Bistro
864,Barakhamba Road,28.629517,77.22547,Nathu's Pastry Shop,28.629421564674175,77.23217362373761,Bakery
865,Barakhamba Road,28.629517,77.22547,Wenger's,28.633411895746676,77.21829192902194,Bakery
866,Barakhamba Road,28.629517,77.22547,Nando's,28.630946673402416,77.21972076414269,Portuguese Restaurant
867,Barakhamba Road,28.629517,77.22547,Odeon Social,28.634414197963707,77.22093550978948,Café
868,Barakhamba Road,28.629517,77.22547,Sagar Ratna,28.635487253836967,77.22064969494076,Indian Restaurant
869,Barakhamba Road,28.629517,77.22547,"The Square, Cafe Coffee Day",28.626639961580253,77.21928786545695,Café
870,Barakhamba Road,28.629517,77.22547,Kitty Su,28.630956869667365,77.22741977281687,Nightclub
871,Barakhamba Road,28.629517,77.22547,Starbucks Coffee,28.632010831148985,77.21773135560126,Coffee Shop
872,Barakhamba Road,28.629517,77.22547,The Beer Cafe,28.629138722281358,77.2196032154717,Beer Garden
873,Barakhamba Road,28.629517,77.22547,Fabindia,28.63201193420627,77.21772910740421,Clothing Store
874,Barakhamba Road,28.629517,77.22547,Triveni Terrace Cafe,28.62729512040755,77.23267677755523,Café
875,Barakhamba Road,28.629517,77.22547,Fresc Co,28.628415028106655,77.21954938989002,Italian Restaurant
876,Barakhamba Road,28.629517,77.22547,Chew,28.632001527203066,77.22270642208512,Asian Restaurant
877,Barakhamba Road,28.629517,77.22547,Janpath Street Market,28.628644953888774,77.21915874346587,Flea Market
878,Barakhamba Road,28.629517,77.22547,Pind Balluchi,28.630318339248806,77.21760032761195,North Indian Restaurant
879,Barakhamba Road,28.629517,77.22547,Unplugged,28.63434534341854,77.22139870930441,Lounge
880,Barakhamba Road,28.629517,77.22547,HOTEL SARAVANA BHAVAN,28.632319466435003,77.21644531748599,South Indian Restaurant
881,Barakhamba Road,28.629517,77.22547,The Spice Route,28.625577291994166,77.21806493444225,Asian Restaurant
882,Barakhamba Road,28.629517,77.22547,Nizam's Kathi Kabab | निजा़म काठी कबाब,28.634857957123064,77.21946245007211,Indian Restaurant
883,Barakhamba Road,28.629517,77.22547,Route 04,28.63488981038038,77.22022508672842,Bar
884,Barakhamba Road,28.629517,77.22547,Warehouse Cafe,28.633775293123456,77.22101540430111,Lounge
885,Barakhamba Road,28.629517,77.22547,Ugrasen ki Baoli (Agrasen ki Baoli),28.625819967837163,77.22495513815623,Historic Site
886,Barakhamba Road,28.629517,77.22547,Panchayat Paan Parlour,28.634073264989183,77.22264498769991,Indian Restaurant
887,Barakhamba Road,28.629517,77.22547,Warehouse Cafe,28.63372638697029,77.22102407638606,Café
888,Barakhamba Road,28.629517,77.22547,Odeon Pan Shop,28.634233629735867,77.22079782501127,Food & Drink Shop
889,Barakhamba Road,28.629517,77.22547,The Embassy,28.633590069941445,77.22122128391564,Bar
890,Barakhamba Road,28.629517,77.22547,Triveni Kala Sangam | त्रिवेणी कला संगम,28.62727810676408,77.23213690281561,Arcade
891,Barakhamba Road,28.629517,77.22547,Japanese Fuji Restaurant,28.63309875268639,77.2221218013156,Japanese Restaurant
892,Barakhamba Road,28.629517,77.22547,Dunkin' Donuts,28.630181868375203,77.21962210391595,Donut Shop
893,Barakhamba Road,28.629517,77.22547,Starbucks,28.630105705208507,77.22053962418308,Coffee Shop
894,Barakhamba Road,28.629517,77.22547,Monsoon Salon & Spa Connaught Place,28.63153437940896,77.22230762243271,Salon / Barbershop
895,Barakhamba Road,28.629517,77.22547,Sriram Centre For Art And Culture | श्रीराम कला एवं संस्कृति सेंटर,28.627068680383946,77.23303854947768,Art Gallery
896,Barakhamba Road,28.629517,77.22547,Burger King,28.63261097267992,77.2207306537611,Fast Food Restaurant
897,Barakhamba Road,28.629517,77.22547,National School Of Drama | नेशनल स्कूल ऑफ ड्रामा,28.624658425884913,77.23377108848052,Theater
898,Barakhamba Road,28.629517,77.22547,Immigrants Project - A Cafe in History,28.634055048338602,77.21886681496603,Café
899,Barakhamba Road,28.629517,77.22547,Berco's,28.63240704948879,77.2173230839724,Chinese Restaurant
900,Barakhamba Road,28.629517,77.22547,Anand Biryani House,28.62913638616433,77.22012996193826,Indian Restaurant
901,Barakhamba Road,28.629517,77.22547,Smoke House Deli,28.633764,77.221405,Deli / Bodega
902,Barakhamba Road,28.629517,77.22547,1911,28.6255310755684,77.21871499822704,Mediterranean Restaurant
903,Barakhamba Road,28.629517,77.22547,Wenger's Deli,28.633657990718326,77.21813923616,Deli / Bodega
904,Barakhamba Road,28.629517,77.22547,Lalit Kala Akademi,28.62472069130262,77.23147522319114,Art Gallery
905,Barakhamba Road,28.629517,77.22547,The Vault Cafe,28.630910379338008,77.21988960396206,Bar
906,Barakhamba Road,28.629517,77.22547,Aqua,28.628809037571674,77.21563586358091,Lounge
907,Barakhamba Road,28.629517,77.22547,Lord of the drinks,28.631747627958458,77.2168956566553,Bar
908,Barakhamba Road,28.629517,77.22547,Haldiram's,28.63422999171808,77.22233494432798,Indian Restaurant
909,Barakhamba Road,28.629517,77.22547,Veda Restaurant,28.635210214696645,77.21807926655758,Indian Restaurant
910,Barakhamba Road,28.629517,77.22547,Kamani Auditorium | कमानी ऑडिटोरियम,28.623227542833295,77.23152635626532,Concert Hall
911,Barakhamba Road,28.629517,77.22547,Shri Ram Centre for Performing Arts,28.62706838557234,77.2332911495828,Theater
912,Barakhamba Road,28.629517,77.22547,Bengali Sweet House,28.629489324307045,77.23203349372616,Indian Restaurant
913,Barakhamba Road,28.629517,77.22547,Kwality Restaurant,28.629743645035568,77.21743130219578,Indian Restaurant
914,Barakhamba Road,28.629517,77.22547,Max Mueller Bhawan | मैक्स म्यूलर भवन,28.623786993974573,77.22403418825199,Performing Arts Venue
915,Barakhamba Road,28.629517,77.22547,Jantar Mantar,28.627730762400688,77.21643592080397,Historic Site
916,Barakhamba Road,28.629517,77.22547,Nirula's,28.635506399668113,77.2206047835112,Dessert Shop
917,Barakhamba Road,28.629517,77.22547,Side Wok,28.632907157973833,77.21633720556096,Chinese Restaurant
918,Barakhamba Road,28.629517,77.22547,McDonald's,28.632365736814616,77.21648256126124,Fast Food Restaurant
919,Barakhamba Road,28.629517,77.22547,Nathu sweets,28.62958155884441,77.23201526567841,Bakery
920,Barakhamba Road,28.629517,77.22547,Radisson Blu Marina Hotel,28.633896819447788,77.21724092960358,Hotel
921,Barakhamba Road,28.629517,77.22547,Gola Sizzlers,28.63518246137902,77.21985990076243,BBQ Joint
922,Barakhamba Road,28.629517,77.22547,Madras Coffee House (since 1935),28.63176562734097,77.21646960559119,Coffee Shop
923,Barakhamba Road,28.629517,77.22547,Monkey Bar,28.63151670186656,77.21629239593994,Pub
924,Barakhamba Road,28.629517,77.22547,Café Coffee Day,28.631054,77.21697834826568,Coffee Shop
925,Barakhamba Road,28.629517,77.22547,Cafe Coffee Day,28.63609948523326,77.22495786591341,Café
926,Barakhamba Road,28.629517,77.22547,@Live,28.63547073465791,77.2208127573954,Jazz Club
927,Barakhamba Road,28.629517,77.22547,Indian Coffee House,28.630755930400426,77.21605434631832,Café
928,Barakhamba Road,28.629517,77.22547,My Bar Lounge & Restaurant,28.632387528689907,77.21671670393215,Bar
929,Barakhamba Road,28.629517,77.22547,Ficci Auditorium | फिक्की सभागार,28.626423086414924,77.23138460655473,Theater
930,Barakhamba Road,28.629517,77.22547,FIRE,28.628737183341777,77.21649767623988,Indian Restaurant
931,Barakhamba Road,28.629517,77.22547,Costa Coffee,28.629173,77.2322,Café
932,Barakhamba Road,28.629517,77.22547,Fa Yian,28.632793282499158,77.21718821209873,Chinese Restaurant
933,Barakhamba Road,28.629517,77.22547,The Park Hotel,28.628731170539613,77.21650745045316,Hotel
934,Barakhamba Road,28.629517,77.22547,PVR Rivoli,28.63113875485524,77.2161835964603,Indie Movie Theater
935,Barakhamba Road,28.629517,77.22547,MIST,28.628720062553807,77.21629222049741,Italian Restaurant
936,Barakhamba Road,28.629517,77.22547,Zizo,28.635219893759988,77.22000084086731,Falafel Restaurant
937,Barakhamba Road,28.629517,77.22547,Pioneer's Flavour of China,28.6351857217094,77.21940279006958,Chinese Restaurant
938,Barakhamba Road,28.629517,77.22547,Madame Tussauds,28.63395,77.21687,Museum
